[
  {
    "fields": {
      "business_name": "108 AUTHENTIC VIETNAMESE CUISINE",
      "address": "18114 E VALLEY HWY",
      "city": "KENT",
      "zip_code": "98032",
      "longitude": "-122.2193470000",
      "latitude": "47.4399230000"
    },
    "model": "safe_eats_app.restaurantinfo",
    "pk": "PR0071992"
  },
  {
    "fields": {
      "business_name": "112TH DELI",
      "address": "1120 112TH AVE NE #125",
      "city": "BELLEVUE",
      "zip_code": "98004",
      "longitude": "-122.1896575560",
      "latitude": "47.6206458226"
    },
    "model": "safe_eats_app.restaurantinfo",
    "pk": "PR0066560"
  },
  {
    "fields": {
      "business_name": "13 COINS",
      "address": "18000 PACIFIC HWY S ",
      "city": "Seattle",
      "zip_code": "98188",
      "longitude": "-122.2957679697",
      "latitude": "47.4415898055"
    },
    "model": "safe_eats_app.restaurantinfo",
    "pk": "PR0004264"
  },
  {
    "fields": {
      "business_name": "14 CARROT CAFE",
      "address": "2305 EASTLAKE AVE E ",
      "city": "Seattle",
      "zip_code": "98102",
      "longitude": "-122.3261014499",
      "latitude": "47.6398598066"
    },
    "model": "safe_eats_app.restaurantinfo",
    "pk": "PR0051089"
  },
  {
    "fields": {
      "business_name": "1ST LUTHERAN",
      "address": "10207 NE 183RD ST ",
      "city": "Bothell",
      "zip_code": "98011",
      "longitude": "-122.2034163713",
      "latitude": "47.7607441781"
    },
    "model": "safe_eats_app.restaurantinfo",
    "pk": "PR0006005"
  },
  {
    "fields": {
      "business_name": "2 SISTERS ESPRESSO",
      "address": "35739 W VALLEY HWY ",
      "city": "ALGONA",
      "zip_code": "98001",
      "longitude": "-122.2594466412",
      "latitude": "47.2802449938"
    },
    "model": "safe_eats_app.restaurantinfo",
    "pk": "PR0067453"
  },
  {
    "fields": {
      "business_name": "21 ACRES MARKET",
      "address": "13701 NE 171ST ST",
      "city": "WOODINVILLE",
      "zip_code": "98072",
      "longitude": "-122.1570955200",
      "latitude": "47.7501674800"
    },
    "model": "safe_eats_app.restaurantinfo",
    "pk": "PR0082317"
  },
  {
    "fields": {
      "business_name": "212TH CHEVRON",
      "address": "8315 S 212TH ST ",
      "city": "Kent",
      "zip_code": "98032",
      "longitude": "-122.2288157022",
      "latitude": "47.4116301242"
    },
    "model": "safe_eats_app.restaurantinfo",
    "pk": "PR0046920"
  },
  {
    "fields": {
      "business_name": "23RD & CHERRY FELLOWSHIP HALL",
      "address": "2701 E CHERRY ST ",
      "city": "SEATTLE",
      "zip_code": "98122",
      "longitude": "-122.2975523990",
      "latitude": "47.6077428096"
    },
    "model": "safe_eats_app.restaurantinfo",
    "pk": "PR0069504"
  },
  {
    "fields": {
      "business_name": "24/7 CONVENIENCE STORE",
      "address": "11851 GLENDALE WAY S",
      "city": "SEATTLE",
      "zip_code": "98168",
      "longitude": "-122.3111800000",
      "latitude": "47.4960950000"
    },
    "model": "safe_eats_app.restaurantinfo",
    "pk": "PR0082552"
  },
  {
    "fields": {
      "business_name": "2NE PHO",
      "address": "2020 S 320TH ST # I",
      "city": "FEDERAL WAY",
      "zip_code": "98003",
      "longitude": "-122.3080491678",
      "latitude": "47.3152821594"
    },
    "model": "safe_eats_app.restaurantinfo",
    "pk": "PR0063810"
  },
  {
    "fields": {
      "business_name": "3.14 BAKERY",
      "address": "9602 16TH AVE SW",
      "city": "SEATTLE",
      "zip_code": "98106",
      "longitude": "-122.3549502900",
      "latitude": "47.5171543600"
    },
    "model": "safe_eats_app.restaurantinfo",
    "pk": "PR0080665"
  },
  {
    "fields": {
      "business_name": "405 EXPRESS MINI MARKET",
      "address": "1800 NE 44TH ST ",
      "city": "Renton",
      "zip_code": "98056",
      "longitude": "-122.1943011453",
      "latitude": "47.5327036221"
    },
    "model": "safe_eats_app.restaurantinfo",
    "pk": "PR0013001"
  },
  {
    "fields": {
      "business_name": "4649 RESTAURANT",
      "address": "1913 N 45TH ST ",
      "city": "Seattle",
      "zip_code": "98103",
      "longitude": "-122.3344350279",
      "latitude": "47.6612037129"
    },
    "model": "safe_eats_app.restaurantinfo",
    "pk": "PR0057270"
  },
  {
    "fields": {
      "business_name": "4TH AVENUE GROCERY OUTLET",
      "address": "1702 4TH AVE S",
      "city": "SEATTLE",
      "zip_code": "98134",
      "longitude": "-122.3286471900",
      "latitude": "47.5879986600"
    },
    "model": "safe_eats_app.restaurantinfo",
    "pk": "PR0079908"
  },
  {
    "fields": {
      "business_name": "5 CORNERS MINI MART",
      "address": "309 W MCGRAW ST",
      "city": "SEATTLE",
      "zip_code": "98119",
      "longitude": "-122.3614174400",
      "latitude": "47.6394715700"
    },
    "model": "safe_eats_app.restaurantinfo",
    "pk": "PR0080708"
  },
  {
    "fields": {
      "business_name": "5 HERMANOS",
      "address": "3901 NE 4TH ST ",
      "city": "Renton",
      "zip_code": "98056",
      "longitude": "-122.1657423187",
      "latitude": "47.4880782498"
    },
    "model": "safe_eats_app.restaurantinfo",
    "pk": "PR0032348"
  },
  {
    "fields": {
      "business_name": "5319 LLC  CITY SMOOTHIE",
      "address": "27245 172ND AVE SE",
      "city": "COVINGTON",
      "zip_code": "98042",
      "longitude": "-122.1115559600",
      "latitude": "47.3566298900"
    },
    "model": "safe_eats_app.restaurantinfo",
    "pk": "PR0081626"
  },
  {
    "fields": {
      "business_name": "56TH STREET MARKET",
      "address": "2201 N 56TH ST ",
      "city": "SEATTLE",
      "zip_code": "98103",
      "longitude": "-122.3324480219",
      "latitude": "47.6685054875"
    },
    "model": "safe_eats_app.restaurantinfo",
    "pk": "PR0076345"
  },
  {
    "fields": {
      "business_name": "7 BEEF",
      "address": "1305 E JEFFERSON ST",
      "city": "SEATTLE",
      "zip_code": "98122",
      "longitude": "-122.3150859900",
      "latitude": "47.6060009600"
    },
    "model": "safe_eats_app.restaurantinfo",
    "pk": "PR0085179"
  },
  {
    "fields": {
      "business_name": "7 SANDWICH (KC410)",
      "address": "317 NW GILMAN BL",
      "city": "ISSAQUAH",
      "zip_code": "98027",
      "longitude": "-122.0423605400",
      "latitude": "47.5397390700"
    },
    "model": "safe_eats_app.restaurantinfo",
    "pk": "PR0085540"
  },
  {
    "fields": {
      "business_name": "7-ELEVEN  #2361-20249D",
      "address": "1302 8TH ST NE ",
      "city": "Auburn",
      "zip_code": "98002",
      "longitude": "-122.2130376676",
      "latitude": "47.3149986389"
    },
    "model": "safe_eats_app.restaurantinfo",
    "pk": "PR0005108"
  },
  {
    "fields": {
      "business_name": "7-ELEVEN  #39639A",
      "address": "1208 CENTRAL AVE N",
      "city": "KENT",
      "zip_code": "98032",
      "longitude": "-122.2277944260",
      "latitude": "47.3951640795"
    },
    "model": "safe_eats_app.restaurantinfo",
    "pk": "PR0048623"
  },
  {
    "fields": {
      "business_name": "7-ELEVEN #2360-27304B",
      "address": "13335 100TH AVE NE ",
      "city": "Kirkland",
      "zip_code": "98034",
      "longitude": "-122.2082098498",
      "latitude": "47.7205146432"
    },
    "model": "safe_eats_app.restaurantinfo",
    "pk": "PR0015703"
  },
  {
    "fields": {
      "business_name": "7-ELEVEN #2361 - 39423A",
      "address": "14605 1ST AVE S",
      "city": "BURIEN",
      "zip_code": "98168",
      "longitude": "-122.3343604600",
      "latitude": "47.4719698200"
    },
    "model": "safe_eats_app.restaurantinfo",
    "pk": "PR0080989"
  },
  {
    "fields": {
      "business_name": "7-ELEVEN #26268D",
      "address": "28719 MILITARY RD S ",
      "city": "FEDERAL WAY",
      "zip_code": "98003",
      "longitude": "-122.3016651125",
      "latitude": "47.3436802916"
    },
    "model": "safe_eats_app.restaurantinfo",
    "pk": "PR0012344"
  },
  {
    "fields": {
      "business_name": "7-ELEVEN #35056A",
      "address": "17615 108TH AVE SE",
      "city": "RENTON",
      "zip_code": "98055",
      "longitude": "-122.1975171600",
      "latitude": "47.4448628100"
    },
    "model": "safe_eats_app.restaurantinfo",
    "pk": "PR0081577"
  },
  {
    "fields": {
      "business_name": "7-ELEVEN #37558A",
      "address": "100 BELLEVUE WAY SE",
      "city": "BELLEVUE",
      "zip_code": "98004",
      "longitude": "-122.2010341600",
      "latitude": "47.6094994500"
    },
    "model": "safe_eats_app.restaurantinfo",
    "pk": "PR0085393"
  },
  {
    "fields": {
      "business_name": "7-ELEVEN #39592A",
      "address": "6230 RAINIER AVE S",
      "city": "SEATTLE",
      "zip_code": "98118",
      "longitude": "-122.2756526100",
      "latitude": "47.5463114500"
    },
    "model": "safe_eats_app.restaurantinfo",
    "pk": "PR0083082"
  },
  {
    "fields": {
      "business_name": "7-ELEVEN STORE  #2361-18758D",
      "address": "26007 PACIFIC HWY S ",
      "city": "DES MOINES",
      "zip_code": "98198",
      "longitude": "-122.3045960311",
      "latitude": "47.3683890092"
    },
    "model": "safe_eats_app.restaurantinfo",
    "pk": "PR0004285"
  },
  {
    "fields": {
      "business_name": "7-ELEVEN STORE #2360-14402D",
      "address": "8316 164TH AVE NE",
      "city": "Redmond",
      "zip_code": "98052",
      "longitude": "-122.1210807094",
      "latitude": "47.6769282763"
    },
    "model": "safe_eats_app.restaurantinfo",
    "pk": "PR0006008"
  },
  {
    "fields": {
      "business_name": "7-ELEVEN STORE #2360-14408F",
      "address": "1308 N 30TH ST",
      "city": "Renton",
      "zip_code": "98056",
      "longitude": "-122.2009238713",
      "latitude": "47.5186851801"
    },
    "model": "safe_eats_app.restaurantinfo",
    "pk": "PR0005107"
  },
  {
    "fields": {
      "business_name": "7-ELEVEN STORE #2360-17922F",
      "address": "3233 156TH AVE SE ",
      "city": "Bellevue",
      "zip_code": "98007",
      "longitude": "-122.1357030838",
      "latitude": "47.5814007152"
    },
    "model": "safe_eats_app.restaurantinfo",
    "pk": "PR0006020"
  },
  {
    "fields": {
      "business_name": "7-ELEVEN STORE #2360-18553D",
      "address": "3939 STONE WAY N ",
      "city": "Seattle",
      "zip_code": "98103",
      "longitude": "-122.3429274107",
      "latitude": "47.6551035359"
    },
    "model": "safe_eats_app.restaurantinfo",
    "pk": "PR0001037"
  },
  {
    "fields": {
      "business_name": "7-ELEVEN STORE #2360-19911D",
      "address": "14340 124TH AVE NE ",
      "city": "Kirkland",
      "zip_code": "98034",
      "longitude": "-122.1749277871",
      "latitude": "47.7310672061"
    },
    "model": "safe_eats_app.restaurantinfo",
    "pk": "PR0006025"
  },
  {
    "fields": {
      "business_name": "7-ELEVEN STORE #2360-21833C",
      "address": "13923 NE 175TH ST ",
      "city": "Woodinville",
      "zip_code": "98072",
      "longitude": "-122.1531917088",
      "latitude": "47.7541172929"
    },
    "model": "safe_eats_app.restaurantinfo",
    "pk": "PR0006018"
  },
  {
    "fields": {
      "business_name": "7-ELEVEN STORE #2360-23559D",
      "address": "2353 140TH AVE NE ",
      "city": "Bellevue",
      "zip_code": "98005",
      "longitude": "-122.1542143871",
      "latitude": "47.6312652752"
    },
    "model": "safe_eats_app.restaurantinfo",
    "pk": "PR0006026"
  },
  {
    "fields": {
      "business_name": "7-ELEVEN STORE #2360-23930B",
      "address": "14501 JUANITA WOODINVILLE WAY NE ",
      "city": "Bothell",
      "zip_code": "98011",
      "longitude": "-122.1953508409",
      "latitude": "47.7331800608"
    },
    "model": "safe_eats_app.restaurantinfo",
    "pk": "PR0006019"
  },
  {
    "fields": {
      "business_name": "7-ELEVEN STORE #2360-24497C",
      "address": "2009 RAINIER AVE S ",
      "city": "Seattle",
      "zip_code": "98144",
      "longitude": "-122.3040144096",
      "latitude": "47.5852103030"
    },
    "model": "safe_eats_app.restaurantinfo",
    "pk": "PR0002240"
  },
  {
    "fields": {
      "business_name": "7-ELEVEN STORE #2360-26056C",
      "address": "3302 E LAKE SAMMAMISH PKWY SE ",
      "city": "SAMMAMISH",
      "zip_code": "98075",
      "longitude": "-122.0745370000",
      "latitude": "47.5799370000"
    },
    "model": "safe_eats_app.restaurantinfo",
    "pk": "PR0011106"
  },
  {
    "fields": {
      "business_name": "7-ELEVEN STORE #2360-26544C",
      "address": "304 N 36TH ST ",
      "city": "Seattle",
      "zip_code": "98103",
      "longitude": "-122.3552133262",
      "latitude": "47.6527899515"
    },
    "model": "safe_eats_app.restaurantinfo",
    "pk": "PR0014190"
  },
  {
    "fields": {
      "business_name": "7-ELEVEN STORE #2361-20188E",
      "address": "13131 SE 240TH ST ",
      "city": "Kent",
      "zip_code": "98031",
      "longitude": "-122.1659024145",
      "latitude": "47.3865287526"
    },
    "model": "safe_eats_app.restaurantinfo",
    "pk": "PR0005783"
  },
  {
    "fields": {
      "business_name": "AERIE",
      "address": "5520 108TH AVE NE ",
      "city": "KIRKLAND",
      "zip_code": "98033",
      "longitude": "-122.1947946954",
      "latitude": "47.6584178739"
    },
    "model": "safe_eats_app.restaurantinfo",
    "pk": "PR0069327"
  },
  {
    "fields": {
      "business_name": "7-ELEVEN STORE #2361-22561C",
      "address": "3280 SW AVALON WAY ",
      "city": "Seattle",
      "zip_code": "98126",
      "longitude": "-122.3756965354",
      "latitude": "47.5644463518"
    },
    "model": "safe_eats_app.restaurantinfo",
    "pk": "PR0002239"
  },
  {
    "fields": {
      "business_name": "7-ELEVEN STORE #2361-22671T",
      "address": "711 WASHINGTON AVE N ",
      "city": "Kent",
      "zip_code": "98032",
      "longitude": "-122.2479670866",
      "latitude": "47.3870366352"
    },
    "model": "safe_eats_app.restaurantinfo",
    "pk": "PR0005120"
  },
  {
    "fields": {
      "business_name": "7-ELEVEN STORE #2361-22984E",
      "address": "3702 AUBURN WAY N ",
      "city": "Auburn",
      "zip_code": "98002",
      "longitude": "-122.2217057921",
      "latitude": "47.3404979349"
    },
    "model": "safe_eats_app.restaurantinfo",
    "pk": "PR0010544"
  },
  {
    "fields": {
      "business_name": "7-ELEVEN STORE #2361-24404B",
      "address": "3801 CALIFORNIA AVE SW ",
      "city": "Seattle",
      "zip_code": "98116",
      "longitude": "-122.3871664132",
      "latitude": "47.5699586859"
    },
    "model": "safe_eats_app.restaurantinfo",
    "pk": "PR0002242"
  },
  {
    "fields": {
      "business_name": "7-ELEVEN STORE #2361-25650D",
      "address": "23616 WITTE RD SE ",
      "city": "Maple Valley",
      "zip_code": "98038",
      "longitude": "-122.0456749114",
      "latitude": "47.3898521576"
    },
    "model": "safe_eats_app.restaurantinfo",
    "pk": "PR0010915"
  },
  {
    "fields": {
      "business_name": "7-ELEVEN STORE #2361-26939C",
      "address": "2429 HARBOR AVE SW ",
      "city": "Seattle",
      "zip_code": "98126",
      "longitude": "-122.3734129133",
      "latitude": "47.5813771296"
    },
    "model": "safe_eats_app.restaurantinfo",
    "pk": "PR0013963"
  },
  {
    "fields": {
      "business_name": "7-ELEVEN STORE #2361-32658B",
      "address": "1200 SW 43RD ST ",
      "city": "Renton",
      "zip_code": "98057",
      "longitude": "-122.2334291197",
      "latitude": "47.4416215354"
    },
    "model": "safe_eats_app.restaurantinfo",
    "pk": "PR0054242"
  },
  {
    "fields": {
      "business_name": "7-ELEVEN, INC/MKT 2361- 14481E",
      "address": "1539 21ST AVE SE ",
      "city": "Auburn",
      "zip_code": "98002",
      "longitude": "-122.2089181577",
      "latitude": "47.2902922346"
    },
    "model": "safe_eats_app.restaurantinfo",
    "pk": "PR0005115"
  },
  {
    "fields": {
      "business_name": "7-ELEVEN, INC/MKT 2361- 27284B",
      "address": "32935 1ST AVE S ",
      "city": "FEDERAL WAY",
      "zip_code": "98003",
      "longitude": "-122.3351205559",
      "latitude": "47.3064827544"
    },
    "model": "safe_eats_app.restaurantinfo",
    "pk": "PR0004580"
  },
  {
    "fields": {
      "business_name": "7-ELEVEN, INC/MKT 2361- 27311C",
      "address": "1481 W MEEKER ST ",
      "city": "Kent",
      "zip_code": "98032",
      "longitude": "-122.2532654687",
      "latitude": "47.3815175429"
    },
    "model": "safe_eats_app.restaurantinfo",
    "pk": "PR0015697"
  },
  {
    "fields": {
      "business_name": "7-ELEVEN, INC/MKT 2361-14439G",
      "address": "34041 MILITARY RD S ",
      "city": "Auburn",
      "zip_code": "98001",
      "longitude": "-122.2739352915",
      "latitude": "47.2959579746"
    },
    "model": "safe_eats_app.restaurantinfo",
    "pk": "PR0004272"
  },
  {
    "fields": {
      "business_name": "7-ELEVEN, INC/MKT 2361-17463D",
      "address": "104 SW 312TH ST ",
      "city": "Federal Way",
      "zip_code": "98023",
      "longitude": "-122.3350502425",
      "latitude": "47.3227981005"
    },
    "model": "safe_eats_app.restaurantinfo",
    "pk": "PR0004277"
  },
  {
    "fields": {
      "business_name": "7-TWELVE FOOD MART",
      "address": "10225 SE 256TH ST",
      "city": "KENT",
      "zip_code": "98030",
      "longitude": "-122.2041511695",
      "latitude": "47.3722396052"
    },
    "model": "safe_eats_app.restaurantinfo",
    "pk": "PR0005788"
  },
  {
    "fields": {
      "business_name": "757 MINI MART",
      "address": "14257 DES MOINES MEMORIAL DR S ",
      "city": "Seattle",
      "zip_code": "98168",
      "longitude": "-122.3157808950",
      "latitude": "47.4743730263"
    },
    "model": "safe_eats_app.restaurantinfo",
    "pk": "PR0005059"
  },
  {
    "fields": {
      "business_name": "76 FOOD MART",
      "address": "31509 3RD AVE",
      "city": "BLACK DIAMOND",
      "zip_code": "98010",
      "longitude": "-122.0059667413",
      "latitude": "47.3192093296"
    },
    "model": "safe_eats_app.restaurantinfo",
    "pk": "PR0069805"
  },
  {
    "fields": {
      "business_name": "8TH DAY SPA LLC",
      "address": "34029 HOYT RD SW #B",
      "city": "FEDERAL WAY",
      "zip_code": "98023",
      "longitude": "-122.3825055900",
      "latitude": "47.2963847200"
    },
    "model": "safe_eats_app.restaurantinfo",
    "pk": "PR0081792"
  },
  {
    "fields": {
      "business_name": "99 PARK",
      "address": "99 102ND AVE NE",
      "city": "BELLEVUE",
      "zip_code": "98004",
      "longitude": "-122.2045460000",
      "latitude": "47.6109680000"
    },
    "model": "safe_eats_app.restaurantinfo",
    "pk": "PR0084092"
  },
  {
    "fields": {
      "business_name": "99 RANCH MARKET",
      "address": "18230 E VALLEY HWY ",
      "city": "Kent",
      "zip_code": "98032",
      "longitude": "-122.2457506979",
      "latitude": "47.4383135834"
    },
    "model": "safe_eats_app.restaurantinfo",
    "pk": "PR0052116"
  },
  {
    "fields": {
      "business_name": "99 RANCH MARKET",
      "address": "18230 E VALLEY HWY ",
      "city": "Kent",
      "zip_code": "98032",
      "longitude": "-122.2457506979",
      "latitude": "47.4383135834"
    },
    "model": "safe_eats_app.restaurantinfo",
    "pk": "PR0052117"
  },
  {
    "fields": {
      "business_name": "A BAO TIME LLC",
      "address": "3201 4TH AVE S",
      "city": "SEATTLE",
      "zip_code": "98134",
      "longitude": "-122.3174183000",
      "latitude": "47.7099898200"
    },
    "model": "safe_eats_app.restaurantinfo",
    "pk": "PR0082747"
  },
  {
    "fields": {
      "business_name": "A G BELL ELEMENTARY SCHOOL",
      "address": "11212 NE 112TH ST ",
      "city": "Kirkland",
      "zip_code": "98033",
      "longitude": "-122.1919389346",
      "latitude": "47.7013982700"
    },
    "model": "safe_eats_app.restaurantinfo",
    "pk": "PR0083568"
  },
  {
    "fields": {
      "business_name": "A STREET VALERO",
      "address": "305 'A' ST SE ",
      "city": "AUBURN",
      "zip_code": "98002",
      "longitude": "-122.2290788728",
      "latitude": "47.3045566239"
    },
    "model": "safe_eats_app.restaurantinfo",
    "pk": "PR0012019"
  },
  {
    "fields": {
      "business_name": "A-CHAU CAFE",
      "address": "6902 RAINIER AVE S",
      "city": "SEATTLE",
      "zip_code": "98118",
      "longitude": "-122.2711872177",
      "latitude": "47.5405646490"
    },
    "model": "safe_eats_app.restaurantinfo",
    "pk": "PR0069317"
  },
  {
    "fields": {
      "business_name": "A-PIZZA MART",
      "address": "9452 35TH AVE SW ",
      "city": "Seattle",
      "zip_code": "98126",
      "longitude": "-122.3763195441",
      "latitude": "47.5177271180"
    },
    "model": "safe_eats_app.restaurantinfo",
    "pk": "PR0029367"
  },
  {
    "fields": {
      "business_name": "A-STREET BIG FOOT JAVA",
      "address": "1404 A ST SE",
      "city": "AUBURN",
      "zip_code": "98002",
      "longitude": "-122.2285323800",
      "latitude": "47.2957162600"
    },
    "model": "safe_eats_app.restaurantinfo",
    "pk": "PR0082501"
  },
  {
    "fields": {
      "business_name": "A. H. COOKIES LLC",
      "address": "2008 S COMMONS MALL C-7",
      "city": "Federal Way",
      "zip_code": "98003",
      "longitude": "-122.3074090000",
      "latitude": "47.3134920000"
    },
    "model": "safe_eats_app.restaurantinfo",
    "pk": "PR0011563"
  },
  {
    "fields": {
      "business_name": "AA SUSHI",
      "address": "9730 NE 119TH WAY ",
      "city": "KIRKLAND",
      "zip_code": "98034",
      "longitude": "-122.2124840976",
      "latitude": "47.7067052692"
    },
    "model": "safe_eats_app.restaurantinfo",
    "pk": "PR0072325"
  },
  {
    "fields": {
      "business_name": "AARONS PIZZA PALACE",
      "address": "116 SW 148TH ST D-190",
      "city": "BURIEN",
      "zip_code": "98166",
      "longitude": "-122.3349543717",
      "latitude": "47.4715160916"
    },
    "model": "safe_eats_app.restaurantinfo",
    "pk": "PR0065292"
  },
  {
    "fields": {
      "business_name": "ABARROTES 'EL MEXICANO'",
      "address": "3218 RAINIER AVE S ",
      "city": "SEATTLE",
      "zip_code": "98144",
      "longitude": "-122.2946149144",
      "latitude": "47.5745007576"
    },
    "model": "safe_eats_app.restaurantinfo",
    "pk": "PR0069921"
  },
  {
    "fields": {
      "business_name": "ABARROTES EL OAXAQUENO",
      "address": "4515 15TH AVE S",
      "city": "SEATTLE",
      "zip_code": "98108",
      "longitude": "-122.3138815400",
      "latitude": "47.5630348400"
    },
    "model": "safe_eats_app.restaurantinfo",
    "pk": "PR0082013"
  },
  {
    "fields": {
      "business_name": "ABBOUD'S MC DONALD'S, LLC",
      "address": "3003 CALIFORNIA AVE SW ",
      "city": "Seattle",
      "zip_code": "98116",
      "longitude": "-122.3871218620",
      "latitude": "47.5767089847"
    },
    "model": "safe_eats_app.restaurantinfo",
    "pk": "PR0044982"
  },
  {
    "fields": {
      "business_name": "ABBOUD'S MCDONALD'S, LLC",
      "address": "6546 CALIFORNIA AVE SW",
      "city": "Seattle",
      "zip_code": "98136",
      "longitude": "-122.3868457608",
      "latitude": "47.5433052494"
    },
    "model": "safe_eats_app.restaurantinfo",
    "pk": "PR0003302"
  },
  {
    "fields": {
      "business_name": "ABC BOOK STORE",
      "address": "5120 32ND ST SE ",
      "city": "AUBURN",
      "zip_code": "98092",
      "longitude": "-122.1626685356",
      "latitude": "47.2797367350"
    },
    "model": "safe_eats_app.restaurantinfo",
    "pk": "PR0076686"
  },
  {
    "fields": {
      "business_name": "ABC GROCERY",
      "address": "22309 7TH AVE S ",
      "city": "DES MOINES",
      "zip_code": "98198",
      "longitude": "-122.3264300987",
      "latitude": "47.4015417630"
    },
    "model": "safe_eats_app.restaurantinfo",
    "pk": "PR0008501"
  },
  {
    "fields": {
      "business_name": "ABERDEEN CAFE",
      "address": "721 M ST NE #103",
      "city": "AUBURN",
      "zip_code": "98002",
      "longitude": "-122.2146987000",
      "latitude": "47.3148208700"
    },
    "model": "safe_eats_app.restaurantinfo",
    "pk": "PR0084994"
  },
  {
    "fields": {
      "business_name": "ABU BAKR MALL",
      "address": "14121 TUKWILA INTERNATIONAL BL",
      "city": "TUKWILA",
      "zip_code": "98168",
      "longitude": "-122.2840554300",
      "latitude": "47.4766639600"
    },
    "model": "safe_eats_app.restaurantinfo",
    "pk": "PR0085063"
  },
  {
    "fields": {
      "business_name": "ACORN CATERING",
      "address": "16918 25TH AVE NE ",
      "city": "LAKE FOREST PARK",
      "zip_code": "98155",
      "longitude": "-122.3024447256",
      "latitude": "47.7516352478"
    },
    "model": "safe_eats_app.restaurantinfo",
    "pk": "PR0070250"
  },
  {
    "fields": {
      "business_name": "ADAMS ELEMENTARY SCHOOL",
      "address": "6110 28TH AVE NW ",
      "city": "Seattle",
      "zip_code": "98107",
      "longitude": "-122.3921190670",
      "latitude": "47.6734987391"
    },
    "model": "safe_eats_app.restaurantinfo",
    "pk": "PR0001045"
  },
  {
    "fields": {
      "business_name": "ADELAIDE ELEMENTARY SCHOOL",
      "address": "1635 SW 304TH ST ",
      "city": "Federal Way",
      "zip_code": "98003",
      "longitude": "-122.3125505759",
      "latitude": "47.3294717766"
    },
    "model": "safe_eats_app.restaurantinfo",
    "pk": "PR0004292"
  },
  {
    "fields": {
      "business_name": "ADESA WASHINGTON INC.",
      "address": "621 37TH ST NW ",
      "city": "Auburn",
      "zip_code": "98001",
      "longitude": "-122.2379025329",
      "latitude": "47.3407587060"
    },
    "model": "safe_eats_app.restaurantinfo",
    "pk": "PR0043206"
  },
  {
    "fields": {
      "business_name": "ADMIRAL CHEVRON",
      "address": "2347 CALIFORNIA AVE SW ",
      "city": "Seattle",
      "zip_code": "98116",
      "longitude": "-122.3869173867",
      "latitude": "47.5814948042"
    },
    "model": "safe_eats_app.restaurantinfo",
    "pk": "PR0032808"
  },
  {
    "fields": {
      "business_name": "ADMIRAL CHEVRON",
      "address": "4100 SW ADMIRAL WAY",
      "city": "SEATTLE",
      "zip_code": "98116",
      "longitude": "-122.3841813100",
      "latitude": "47.5814634600"
    },
    "model": "safe_eats_app.restaurantinfo",
    "pk": "PR0084512"
  },
  {
    "fields": {
      "business_name": "ADMIRAL CINEMA LLC",
      "address": "2343 CALIFORNIA AVE ",
      "city": "SEATTLE",
      "zip_code": "98116",
      "longitude": "-122.3867328999",
      "latitude": "47.5827069467"
    },
    "model": "safe_eats_app.restaurantinfo",
    "pk": "PR0071437"
  },
  {
    "fields": {
      "business_name": "ADMIRAL PUB",
      "address": "2306 CALIFORNIA AVE SW ",
      "city": "Seattle",
      "zip_code": "98116",
      "longitude": "-122.3862261638",
      "latitude": "47.5826970640"
    },
    "model": "safe_eats_app.restaurantinfo",
    "pk": "PR0003839"
  },
  {
    "fields": {
      "business_name": "ADRIENNE'S CAKES & PIES",
      "address": "13226 SE 30TH ST STE B-10",
      "city": "BELLEVUE",
      "zip_code": "98005",
      "longitude": "-122.2212051400",
      "latitude": "47.4433284200"
    },
    "model": "safe_eats_app.restaurantinfo",
    "pk": "PR0083869"
  },
  {
    "fields": {
      "business_name": "AF OPERATIONS - TRUCK #1 (KC383)",
      "address": "1227 124TH AVE NE",
      "city": "BELLEVUE",
      "zip_code": "98005",
      "longitude": "-122.1754386300",
      "latitude": "47.6224447900"
    },
    "model": "safe_eats_app.restaurantinfo",
    "pk": "PR0084891"
  },
  {
    "fields": {
      "business_name": "AFC SUSHI & METROPOLITAN #153",
      "address": "2320 42ND AVE SW ",
      "city": "SEATTLE",
      "zip_code": "98116",
      "longitude": "-122.3845548788",
      "latitude": "47.5819052560"
    },
    "model": "safe_eats_app.restaurantinfo",
    "pk": "PR0046980"
  },
  {
    "fields": {
      "business_name": "AFC SUSHI (FRED MEYER #00664)",
      "address": "17667 NE 76TH ST",
      "city": "REDMOND",
      "zip_code": "98052",
      "longitude": "-122.1039742799",
      "latitude": "47.6707084507"
    },
    "model": "safe_eats_app.restaurantinfo",
    "pk": "PR0068023"
  },
  {
    "fields": {
      "business_name": "AFC SUSHI @ F. MEYER #215",
      "address": "25250 PACIFIC HWY S ",
      "city": "KENT",
      "zip_code": "98032",
      "longitude": "-122.2980774989",
      "latitude": "47.3739916890"
    },
    "model": "safe_eats_app.restaurantinfo",
    "pk": "PR0076972"
  },
  {
    "fields": {
      "business_name": "AFC Sushi @ Fred Meyer #19",
      "address": "801 Auburn WAY N",
      "city": "AUBURN",
      "zip_code": "98002",
      "longitude": "-122.2263516300",
      "latitude": "47.3154921500"
    },
    "model": "safe_eats_app.restaurantinfo",
    "pk": "PR0081764"
  },
  {
    "fields": {
      "business_name": "AFC SUSHI @ FRED MEYER #28",
      "address": "14300 1ST AVE S",
      "city": "BURIEN",
      "zip_code": "98168",
      "longitude": "-122.3335934514",
      "latitude": "47.4750606598"
    },
    "model": "safe_eats_app.restaurantinfo",
    "pk": "PR0077551"
  },
  {
    "fields": {
      "business_name": "AFC SUSHI @ FRED MEYER #391",
      "address": "12221 120TH AVE NE",
      "city": "KIRKLAND",
      "zip_code": "98034",
      "longitude": "-122.1834302600",
      "latitude": "47.7075884000"
    },
    "model": "safe_eats_app.restaurantinfo",
    "pk": "PR0081676"
  },
  {
    "fields": {
      "business_name": "AFC SUSHI @ FRED MEYER #459",
      "address": "365 RENTON CENTER WAY SW",
      "city": "RENTON",
      "zip_code": "98057",
      "longitude": "-122.2181200000",
      "latitude": "47.4785300000"
    },
    "model": "safe_eats_app.restaurantinfo",
    "pk": "PR0076216"
  },
  {
    "fields": {
      "business_name": "AFC SUSHI @ FRED MEYER #53",
      "address": "16735 SE 272ND ST ",
      "city": "COVINGTON",
      "zip_code": "98042",
      "longitude": "-122.1186118847",
      "latitude": "47.3565380374"
    },
    "model": "safe_eats_app.restaurantinfo",
    "pk": "PR0071965"
  },
  {
    "fields": {
      "business_name": "AFC SUSHI @ FRED MEYER #658",
      "address": "6100 E LAKE SAMMAMISH PKWY SE",
      "city": "ISSAQUAH",
      "zip_code": "98029",
      "longitude": "-122.0398151588",
      "latitude": "47.5468353081"
    },
    "model": "safe_eats_app.restaurantinfo",
    "pk": "PR0065380"
  },
  {
    "fields": {
      "business_name": "AFC Sushi @ FRED MEYER #682",
      "address": "26520 MAPLE VALLEY BLK DIAMOND RD",
      "city": "MAPLE VALLEY",
      "zip_code": "98038",
      "longitude": "-122.0186880000",
      "latitude": "47.3641830000"
    },
    "model": "safe_eats_app.restaurantinfo",
    "pk": "PR0082186"
  },
  {
    "fields": {
      "business_name": "AFC Sushi @ Metropolitan Mkt #159",
      "address": "10611 NE 68th ST",
      "city": "KIRKLAND",
      "zip_code": "98033",
      "longitude": "-122.1977170500",
      "latitude": "47.6659526700"
    },
    "model": "safe_eats_app.restaurantinfo",
    "pk": "PR0080523"
  },
  {
    "fields": {
      "business_name": "AFC SUSHI @ OFC #819",
      "address": "18931 BOTHELL WAY NE",
      "city": "BOTHELL",
      "zip_code": "98011",
      "longitude": "-122.2112665742",
      "latitude": "47.7657206873"
    },
    "model": "safe_eats_app.restaurantinfo",
    "pk": "PR0077733"
  },
  {
    "fields": {
      "business_name": "AFC SUSHI @ PCC REDMOND 12",
      "address": "11435 AVONDALE RD NE ",
      "city": "REDMOND",
      "zip_code": "98052",
      "longitude": "-122.0935267821",
      "latitude": "47.7020743553"
    },
    "model": "safe_eats_app.restaurantinfo",
    "pk": "PR0072059"
  },
  {
    "fields": {
      "business_name": "AFC SUSHI @ QFC #805",
      "address": "17847 1ST AVE S ",
      "city": "NORMANDY PARK",
      "zip_code": "98148",
      "longitude": "-122.3357260820",
      "latitude": "47.4418026730"
    },
    "model": "safe_eats_app.restaurantinfo",
    "pk": "PR0077673"
  },
  {
    "fields": {
      "business_name": "AFC SUSHI @ QFC #821",
      "address": "1540 NW GILMAN BL ",
      "city": "ISSAQUAH",
      "zip_code": "98027",
      "longitude": "-122.0603729521",
      "latitude": "47.5465911260"
    },
    "model": "safe_eats_app.restaurantinfo",
    "pk": "PR0069160"
  },
  {
    "fields": {
      "business_name": "AFC SUSHI @ QFC #828",
      "address": "11224 NE 124TH ST ",
      "city": "KIRKLAND",
      "zip_code": "98034",
      "longitude": "-122.1911424299",
      "latitude": "47.7122650401"
    },
    "model": "safe_eats_app.restaurantinfo",
    "pk": "PR0072371"
  },
  {
    "fields": {
      "business_name": "AFC SUSHI @ QFC #829",
      "address": "460 E NORTH BEND WAY ",
      "city": "NORTH BEND",
      "zip_code": "98045",
      "longitude": "-121.7806598256",
      "latitude": "47.4931372803"
    },
    "model": "safe_eats_app.restaurantinfo",
    "pk": "PR0071894"
  },
  {
    "fields": {
      "business_name": "AFC SUSHI @ QFC #838",
      "address": "14130 JUANITA DR NE ",
      "city": "KIRKLAND",
      "zip_code": "98034",
      "longitude": "-122.2433876873",
      "latitude": "47.7291493438"
    },
    "model": "safe_eats_app.restaurantinfo",
    "pk": "PR0071343"
  },
  {
    "fields": {
      "business_name": "AFC SUSHI @ QFC #840",
      "address": "4570 KLAHANIE DR SE ",
      "city": "ISSAQUAH",
      "zip_code": "98029",
      "longitude": "-122.0035732241",
      "latitude": "47.5654161528"
    },
    "model": "safe_eats_app.restaurantinfo",
    "pk": "PR0076223"
  },
  {
    "fields": {
      "business_name": "AFC SUSHI @ QFC #849",
      "address": "2707 RAINIER AVE S ",
      "city": "SEATTLE",
      "zip_code": "98144",
      "longitude": "-122.2998000679",
      "latitude": "47.5787631769"
    },
    "model": "safe_eats_app.restaurantinfo",
    "pk": "PR0071967"
  },
  {
    "fields": {
      "business_name": "AFC Sushi @ QFC #874",
      "address": "1510 145th PL SE ",
      "city": "BELLEVUE",
      "zip_code": "98007",
      "longitude": "-122.1486797600",
      "latitude": "47.5968573400"
    },
    "model": "safe_eats_app.restaurantinfo",
    "pk": "PR0084303"
  },
  {
    "fields": {
      "business_name": "AFC SUSHI @ QFC 860",
      "address": "8867 161ST AVE NE ",
      "city": "Redmond",
      "zip_code": "98052",
      "longitude": "-122.1257636217",
      "latitude": "47.6811370793"
    },
    "model": "safe_eats_app.restaurantinfo",
    "pk": "PR0035077"
  },
  {
    "fields": {
      "business_name": "AFC SUSHI @ SAFEWAY #1471",
      "address": "26916 MAPLE VALLEY BLK DIAMOND RD SE",
      "city": "MAPLE VALLEY",
      "zip_code": "98038",
      "longitude": "-122.0183560200",
      "latitude": "47.3603402700"
    },
    "model": "safe_eats_app.restaurantinfo",
    "pk": "PR0082634"
  },
  {
    "fields": {
      "business_name": "AFC SUSHI @ SAFEWAY #2734",
      "address": "10020 NE 137TH ST",
      "city": "KIRKLAND",
      "zip_code": "98034",
      "longitude": "-122.2061952000",
      "latitude": "47.7234518100"
    },
    "model": "safe_eats_app.restaurantinfo",
    "pk": "PR0082023"
  },
  {
    "fields": {
      "business_name": "AFC SUSHI @ SAFEWAY #555",
      "address": "630 228TH AVE NE ",
      "city": "SAMMAMISH",
      "zip_code": "98074",
      "longitude": "-122.0338128227",
      "latitude": "47.6152649326"
    },
    "model": "safe_eats_app.restaurantinfo",
    "pk": "PR0070973"
  },
  {
    "fields": {
      "business_name": "AFGHAN CUISINE INC",
      "address": "14320 NE 20TH ST STE A",
      "city": "BELLEVUE",
      "zip_code": "98007",
      "longitude": "-122.3070859501",
      "latitude": "47.7322974969"
    },
    "model": "safe_eats_app.restaurantinfo",
    "pk": "PR0006948"
  },
  {
    "fields": {
      "business_name": "AFRICA, MIDDLE EAST & INDIAN SPICES GROCERY",
      "address": "12309 15TH AVE NE #C",
      "city": "SEATTLE",
      "zip_code": "98125",
      "longitude": "-122.3130457100",
      "latitude": "47.7179359600"
    },
    "model": "safe_eats_app.restaurantinfo",
    "pk": "PR0081484"
  },
  {
    "fields": {
      "business_name": "AGAVE",
      "address": "1048 NE PARK DR ",
      "city": "ISSAQUAH",
      "zip_code": "98029",
      "longitude": "-122.0154046154",
      "latitude": "47.5438935290"
    },
    "model": "safe_eats_app.restaurantinfo",
    "pk": "PR0072289"
  },
  {
    "fields": {
      "business_name": "AGAVE COCINA & CANTINA",
      "address": "504 RAMSAY WAY #107",
      "city": "KENT",
      "zip_code": "98032",
      "longitude": "-122.2345573283",
      "latitude": "47.3851414476"
    },
    "model": "safe_eats_app.restaurantinfo",
    "pk": "PR0072064"
  },
  {
    "fields": {
      "business_name": "AGAVE COCINA & CANTINA",
      "address": "17168 REDMOND WAY",
      "city": "Redmond",
      "zip_code": "98052",
      "longitude": "-122.1115016471",
      "latitude": "47.6720205987"
    },
    "model": "safe_eats_app.restaurantinfo",
    "pk": "PR0006185"
  },
  {
    "fields": {
      "business_name": "AGELGEL MARKET",
      "address": "2800 E CHERRY ST UNIT D",
      "city": "SEATTLE",
      "zip_code": "98122",
      "longitude": "-122.2958731650",
      "latitude": "47.6081764027"
    },
    "model": "safe_eats_app.restaurantinfo",
    "pk": "PR0069791"
  },
  {
    "fields": {
      "business_name": "Airfield Estates Winery",
      "address": "14450 WOODINVILLE-REDMOND RD NE STE 109",
      "city": "WOODINVILLE",
      "zip_code": "98072",
      "longitude": "-122.1403900000",
      "latitude": "47.7319520000"
    },
    "model": "safe_eats_app.restaurantinfo",
    "pk": "PR0080349"
  },
  {
    "fields": {
      "business_name": "AIRPORT SHELL",
      "address": "17010 PACIFIC HWY S",
      "city": "SEA TAC",
      "zip_code": "98188",
      "longitude": "-122.2958114639",
      "latitude": "47.4504577419"
    },
    "model": "safe_eats_app.restaurantinfo",
    "pk": "PR0033137"
  },
  {
    "fields": {
      "business_name": "AJ'S ESPRESSO",
      "address": "17311 VASHON HWY SW ",
      "city": "VASHON ISLAND",
      "zip_code": "98070",
      "longitude": "-122.4608937518",
      "latitude": "47.4499161507"
    },
    "model": "safe_eats_app.restaurantinfo",
    "pk": "PR0066989"
  },
  {
    "fields": {
      "business_name": "AJI SUSHI & GRILL",
      "address": "1052 NE PARK DR #302",
      "city": "ISSAQUAH",
      "zip_code": "98029",
      "longitude": "-122.0152853198",
      "latitude": "47.5437100585"
    },
    "model": "safe_eats_app.restaurantinfo",
    "pk": "PR0072368"
  },
  {
    "fields": {
      "business_name": "AKASAKA RESTAURANT",
      "address": "31246 PACIFIC HWY S ",
      "city": "Federal Way",
      "zip_code": "98003",
      "longitude": "-122.3131302927",
      "latitude": "47.3218857822"
    },
    "model": "safe_eats_app.restaurantinfo",
    "pk": "PR0004869"
  },
  {
    "fields": {
      "business_name": "AKI KUROSE",
      "address": "3928 S GRAHAM ST ",
      "city": "Seattle",
      "zip_code": "98118",
      "longitude": "-122.2819803375",
      "latitude": "47.5463218344"
    },
    "model": "safe_eats_app.restaurantinfo",
    "pk": "PR0024031"
  },
  {
    "fields": {
      "business_name": "AL'S GOURMET SAUSAGE #5",
      "address": "170 KING ST ",
      "city": "SEATTLE",
      "zip_code": "98104",
      "longitude": "-122.3323348755",
      "latitude": "47.5984533304"
    },
    "model": "safe_eats_app.restaurantinfo",
    "pk": "PR0066378"
  },
  {
    "fields": {
      "business_name": "AL'S GOURMET SAUSAGE DTEH - 034",
      "address": "170 KING ST",
      "city": "SEATTLE",
      "zip_code": "98104",
      "longitude": "-122.3333000000",
      "latitude": "47.5938900000"
    },
    "model": "safe_eats_app.restaurantinfo",
    "pk": "PR0078103"
  },
  {
    "fields": {
      "business_name": "ALACART LLC/THE BUBBLE TEA SHOP",
      "address": "305 HARRISON ST",
      "city": "SEATTLE",
      "zip_code": "98109",
      "longitude": "-122.3494602900",
      "latitude": "47.6217068900"
    },
    "model": "safe_eats_app.restaurantinfo",
    "pk": "PR0085670"
  },
  {
    "fields": {
      "business_name": "ALANO CLUB EASTSIDE",
      "address": "12302 NE 8TH ST ",
      "city": "Bellevue",
      "zip_code": "98005",
      "longitude": "-122.1766411331",
      "latitude": "47.6178919375"
    },
    "model": "safe_eats_app.restaurantinfo",
    "pk": "PR0006039"
  },
  {
    "fields": {
      "business_name": "ALANYA CAFE",
      "address": "1 LAKE ST",
      "city": "KIRKLAND",
      "zip_code": "98033",
      "longitude": "-122.2067719600",
      "latitude": "47.6756241900"
    },
    "model": "safe_eats_app.restaurantinfo",
    "pk": "PR0083801"
  },
  {
    "fields": {
      "business_name": "ALASKA AIRLINES BOARD ROOM",
      "address": "SEA-TAC AIRPORT ConD",
      "city": "Seattle",
      "zip_code": "98158",
      "longitude": "-122.3022800000",
      "latitude": "47.4436200000"
    },
    "model": "safe_eats_app.restaurantinfo",
    "pk": "PR0015343"
  },
  {
    "fields": {
      "business_name": "ALASKA AIRLINES BOARD ROOM LOUNGE",
      "address": "17801 INTERNATIONAL BL",
      "city": "SEATAC",
      "zip_code": "98158",
      "longitude": "-122.3021459100",
      "latitude": "47.4430154000"
    },
    "model": "safe_eats_app.restaurantinfo",
    "pk": "PR0085204"
  },
  {
    "fields": {
      "business_name": "ALBERT EINSTEIN ELEMENTARY",
      "address": "18025 NE 116TH TER ",
      "city": "Redmond",
      "zip_code": "98052",
      "longitude": "-122.0995783901",
      "latitude": "47.7035332023"
    },
    "model": "safe_eats_app.restaurantinfo",
    "pk": "PR0027142"
  },
  {
    "fields": {
      "business_name": "ALBERT EINSTEIN MIDDLE",
      "address": "19343 3RD AVE NW ",
      "city": "SHORELINE",
      "zip_code": "98177",
      "longitude": "-122.3614469653",
      "latitude": "47.7693487912"
    },
    "model": "safe_eats_app.restaurantinfo",
    "pk": "PR0001050"
  },
  {
    "fields": {
      "business_name": "ALBERTSONS #1444",
      "address": "15100 SE 38TH ST",
      "city": "Bellevue",
      "zip_code": "98006",
      "longitude": "-122.1372610035",
      "latitude": "47.5766637065"
    },
    "model": "safe_eats_app.restaurantinfo",
    "pk": "PR0006047"
  },
  {
    "fields": {
      "business_name": "ALBERTSONS #1444",
      "address": "15100 SE 38TH ST",
      "city": "Bellevue",
      "zip_code": "98006",
      "longitude": "-122.1372610035",
      "latitude": "47.5766637065"
    },
    "model": "safe_eats_app.restaurantinfo",
    "pk": "PR0006048"
  },
  {
    "fields": {
      "business_name": "ALBERTSONS #3418",
      "address": "3925 236TH AVE NE ",
      "city": "Redmond",
      "zip_code": "98053",
      "longitude": "-122.0261420642",
      "latitude": "47.6452363914"
    },
    "model": "safe_eats_app.restaurantinfo",
    "pk": "PR0041405"
  },
  {
    "fields": {
      "business_name": "ALBERTSONS #3418",
      "address": "3925 236TH AVE NE ",
      "city": "Redmond",
      "zip_code": "98053",
      "longitude": "-122.0261420642",
      "latitude": "47.6452363914"
    },
    "model": "safe_eats_app.restaurantinfo",
    "pk": "PR0032573"
  },
  {
    "fields": {
      "business_name": "ALBERTSONS #3418",
      "address": "3925 236TH AVE NE ",
      "city": "Redmond",
      "zip_code": "98053",
      "longitude": "-122.0261420642",
      "latitude": "47.6452363914"
    },
    "model": "safe_eats_app.restaurantinfo",
    "pk": "PR0041403"
  },
  {
    "fields": {
      "business_name": "ALBERTSONS #408",
      "address": "2550 32ND AVE W ",
      "city": "Seattle",
      "zip_code": "98199",
      "longitude": "-122.3978807181",
      "latitude": "47.6424608191"
    },
    "model": "safe_eats_app.restaurantinfo",
    "pk": "PR0018562"
  },
  {
    "fields": {
      "business_name": "ALBERTSONS #408",
      "address": "2550 32ND AVE W ",
      "city": "Seattle",
      "zip_code": "98199",
      "longitude": "-122.3978807181",
      "latitude": "47.6424608191"
    },
    "model": "safe_eats_app.restaurantinfo",
    "pk": "PR0002278"
  },
  {
    "fields": {
      "business_name": "ALBERTSONS #408",
      "address": "2550 32ND AVE W ",
      "city": "Seattle",
      "zip_code": "98199",
      "longitude": "-122.3978807181",
      "latitude": "47.6424608191"
    },
    "model": "safe_eats_app.restaurantinfo",
    "pk": "PR0007262"
  },
  {
    "fields": {
      "business_name": "ALBERTSONS #410",
      "address": "13050 AURORA AVE N ",
      "city": "SEATTLE",
      "zip_code": "98133",
      "longitude": "-122.3437280192",
      "latitude": "47.7247930172"
    },
    "model": "safe_eats_app.restaurantinfo",
    "pk": "PR0052105"
  },
  {
    "fields": {
      "business_name": "ALBERTSONS #410",
      "address": "13050 AURORA AVE N ",
      "city": "SEATTLE",
      "zip_code": "98133",
      "longitude": "-122.3437280192",
      "latitude": "47.7247930172"
    },
    "model": "safe_eats_app.restaurantinfo",
    "pk": "PR0049347"
  },
  {
    "fields": {
      "business_name": "ALBERTSONS #483",
      "address": "4010 A ST SE ",
      "city": "Auburn",
      "zip_code": "98002",
      "longitude": "-122.2270042806",
      "latitude": "47.2728361326"
    },
    "model": "safe_eats_app.restaurantinfo",
    "pk": "PR0029069"
  },
  {
    "fields": {
      "business_name": "ALBERTSONS #483",
      "address": "4010 A ST SE ",
      "city": "Auburn",
      "zip_code": "98002",
      "longitude": "-122.2270042806",
      "latitude": "47.2728361326"
    },
    "model": "safe_eats_app.restaurantinfo",
    "pk": "PR0069374"
  },
  {
    "fields": {
      "business_name": "ALBERTSONS #483",
      "address": "4010 A ST SE ",
      "city": "Auburn",
      "zip_code": "98002",
      "longitude": "-122.2270042806",
      "latitude": "47.2728361326"
    },
    "model": "safe_eats_app.restaurantinfo",
    "pk": "PR0029068"
  },
  {
    "fields": {
      "business_name": "ALBERTSONS #483",
      "address": "4010 A ST SE ",
      "city": "Auburn",
      "zip_code": "98002",
      "longitude": "-122.2270042806",
      "latitude": "47.2728361326"
    },
    "model": "safe_eats_app.restaurantinfo",
    "pk": "PR0029070"
  },
  {
    "fields": {
      "business_name": "ALBERTSONS #483",
      "address": "4010 A ST SE ",
      "city": "Auburn",
      "zip_code": "98002",
      "longitude": "-122.2270042806",
      "latitude": "47.2728361326"
    },
    "model": "safe_eats_app.restaurantinfo",
    "pk": "PR0029071"
  },
  {
    "fields": {
      "business_name": "ALBERTSONS #483",
      "address": "4010 A ST SE ",
      "city": "Auburn",
      "zip_code": "98002",
      "longitude": "-122.2270042806",
      "latitude": "47.2728361326"
    },
    "model": "safe_eats_app.restaurantinfo",
    "pk": "PR0033360"
  },
  {
    "fields": {
      "business_name": "ALFURAT MARKET",
      "address": "137 SW 153RD ST ",
      "city": "BURIEN",
      "zip_code": "98166",
      "longitude": "-122.3354240700",
      "latitude": "47.4656616500"
    },
    "model": "safe_eats_app.restaurantinfo",
    "pk": "PR0079762"
  },
  {
    "fields": {
      "business_name": "ALICIA FUSION BISTRO",
      "address": "200 LAKE WASHINGTON BL ",
      "city": "SEATTLE",
      "zip_code": "98122",
      "longitude": "-122.2843045989",
      "latitude": "47.6029895376"
    },
    "model": "safe_eats_app.restaurantinfo",
    "pk": "PR0031260"
  },
  {
    "fields": {
      "business_name": "ALKI BAKERY",
      "address": "20809 72ND AVE S ",
      "city": "KENT",
      "zip_code": "98032",
      "longitude": "-122.2453855572",
      "latitude": "47.4151014851"
    },
    "model": "safe_eats_app.restaurantinfo",
    "pk": "PR0066898"
  },
  {
    "fields": {
      "business_name": "ALKI CAFE",
      "address": "2726 ALKI AVE SW",
      "city": "SEATTLE",
      "zip_code": "98116",
      "longitude": "-122.4109004153",
      "latitude": "47.5788326459"
    },
    "model": "safe_eats_app.restaurantinfo",
    "pk": "PR0010923"
  },
  {
    "fields": {
      "business_name": "ALKI COMMUNITY CENTER",
      "address": "5817 SW STEVENS ST",
      "city": "Seattle",
      "zip_code": "98116",
      "longitude": "-122.4069498165",
      "latitude": "47.5775862226"
    },
    "model": "safe_eats_app.restaurantinfo",
    "pk": "PR0047859"
  },
  {
    "fields": {
      "business_name": "ALKI ELEMENTARY",
      "address": "3010 59TH AVE SW",
      "city": "Seattle",
      "zip_code": "98116",
      "longitude": "-122.4078271254",
      "latitude": "47.5771417203"
    },
    "model": "safe_eats_app.restaurantinfo",
    "pk": "PR0004200"
  },
  {
    "fields": {
      "business_name": "ALKI MAIL & DISPATCH, INC.",
      "address": "4701 SW ADMIRAL WAY ",
      "city": "SEATTLE",
      "zip_code": "98116",
      "longitude": "-122.3920758134",
      "latitude": "47.5808727910"
    },
    "model": "safe_eats_app.restaurantinfo",
    "pk": "PR0071075"
  },
  {
    "fields": {
      "business_name": "ALKI URBAN MARKET",
      "address": "2820 ALKI AVE SW ",
      "city": "SEATTLE",
      "zip_code": "98116",
      "longitude": "-122.4128920780",
      "latitude": "47.5782142292"
    },
    "model": "safe_eats_app.restaurantinfo",
    "pk": "PR0077154"
  },
  {
    "fields": {
      "business_name": "ALL CATERING",
      "address": "11264 20TH AVE S ",
      "city": "BURIEN",
      "zip_code": "98168",
      "longitude": "-122.3071966354",
      "latitude": "47.5009735756"
    },
    "model": "safe_eats_app.restaurantinfo",
    "pk": "PR0076717"
  },
  {
    "fields": {
      "business_name": "All City Coffee",
      "address": "1205 S VALE ST",
      "city": "SEATTLE",
      "zip_code": "98108",
      "longitude": "-122.3170427448",
      "latitude": "47.5490477251"
    },
    "model": "safe_eats_app.restaurantinfo",
    "pk": "PR0066640"
  },
  {
    "fields": {
      "business_name": "ALL STAR GROCERY",
      "address": "2825 S 200TH ST ",
      "city": "Seattle",
      "zip_code": "98198",
      "longitude": "-122.2971039167",
      "latitude": "47.4223931336"
    },
    "model": "safe_eats_app.restaurantinfo",
    "pk": "PR0004618"
  },
  {
    "fields": {
      "business_name": "ALL THINGS WINE",
      "address": "4605 NE 4TH ST #4",
      "city": "RENTON",
      "zip_code": "98059",
      "longitude": "-122.1571997100",
      "latitude": "47.4881944600"
    },
    "model": "safe_eats_app.restaurantinfo",
    "pk": "PR0083867"
  },
  {
    "fields": {
      "business_name": "ALL-STAR SPORTS BAR",
      "address": "22303 MARINE VIEW DR S",
      "city": "DES MOINES",
      "zip_code": "98198",
      "longitude": "-122.3249687000",
      "latitude": "47.4016442300"
    },
    "model": "safe_eats_app.restaurantinfo",
    "pk": "PR0079852"
  },
  {
    "fields": {
      "business_name": "ALLENTOWN SUPERETTE",
      "address": "12404 42ND AVE S",
      "city": "Seattle",
      "zip_code": "98168",
      "longitude": "-122.2798362334",
      "latitude": "47.4922241601"
    },
    "model": "safe_eats_app.restaurantinfo",
    "pk": "PR0004315"
  },
  {
    "fields": {
      "business_name": "ALOHA GROCERY STORE",
      "address": "7762 BEACON AVE S",
      "city": "Seattle",
      "zip_code": "98118",
      "longitude": "-122.2884721545",
      "latitude": "47.5326559832"
    },
    "model": "safe_eats_app.restaurantinfo",
    "pk": "PR0017579"
  },
  {
    "fields": {
      "business_name": "ALOHA HAWAIIAN GRILL",
      "address": "18016 71ST AVE S 102",
      "city": "KENT",
      "zip_code": "98032",
      "longitude": "-122.2441145856",
      "latitude": "47.4410963887"
    },
    "model": "safe_eats_app.restaurantinfo",
    "pk": "PR0076986"
  },
  {
    "fields": {
      "business_name": "ALPAC ELEMENTARY SCHOOL",
      "address": "310 MILWAUKEE BL N ",
      "city": "Pacific",
      "zip_code": "98047",
      "longitude": "-122.2489979486",
      "latitude": "47.2709905181"
    },
    "model": "safe_eats_app.restaurantinfo",
    "pk": "PR0005143"
  },
  {
    "fields": {
      "business_name": "ALTA HEALTHY CAFE",
      "address": "12233 NE TOTEM LAKE WAY",
      "city": "KIRKLAND",
      "zip_code": "98034",
      "longitude": "-122.1765794600",
      "latitude": "47.7122084700"
    },
    "model": "safe_eats_app.restaurantinfo",
    "pk": "PR0084373"
  },
  {
    "fields": {
      "business_name": "ALTAYE  RESTAURANT",
      "address": "8135 RAINIER AVE S ",
      "city": "SEATTLE",
      "zip_code": "98118",
      "longitude": "-122.2701942063",
      "latitude": "47.5293917077"
    },
    "model": "safe_eats_app.restaurantinfo",
    "pk": "PR0076495"
  },
  {
    "fields": {
      "business_name": "AM PM MINI MARKET",
      "address": "6966 COAL CREEK PKWY SE ",
      "city": "NEWCASTLE",
      "zip_code": "98059",
      "longitude": "-122.1655452345",
      "latitude": "47.5394545426"
    },
    "model": "safe_eats_app.restaurantinfo",
    "pk": "PR0016202"
  },
  {
    "fields": {
      "business_name": "AM-PM MINI MART #559",
      "address": "12903 NE 20TH ST",
      "city": "Bellevue",
      "zip_code": "98005",
      "longitude": "-122.1674948690",
      "latitude": "47.6277769080"
    },
    "model": "safe_eats_app.restaurantinfo",
    "pk": "PR0032146"
  },
  {
    "fields": {
      "business_name": "AM/PM MINI MARKET #6026",
      "address": "17200 140TH AVE SE ",
      "city": "Renton",
      "zip_code": "98058",
      "longitude": "-122.1535426934",
      "latitude": "47.4485405641"
    },
    "model": "safe_eats_app.restaurantinfo",
    "pk": "PR0016204"
  },
  {
    "fields": {
      "business_name": "AMANTE PIZZA & PASTA",
      "address": "21020 84TH AVE S ",
      "city": "Kent",
      "zip_code": "98032",
      "longitude": "-122.2246281924",
      "latitude": "47.4127132463"
    },
    "model": "safe_eats_app.restaurantinfo",
    "pk": "PR0005552"
  },
  {
    "fields": {
      "business_name": "AMANTE PIZZA & PASTA",
      "address": "4201 NE SUNSET BL ",
      "city": "Renton",
      "zip_code": "98059",
      "longitude": "-122.1633449805",
      "latitude": "47.5032466393"
    },
    "model": "safe_eats_app.restaurantinfo",
    "pk": "PR0005685"
  },
  {
    "fields": {
      "business_name": "AMANTE PIZZA AND PASTA",
      "address": "12206 JUANITA DR NE ",
      "city": "KIRKLAND",
      "zip_code": "98034",
      "longitude": "-122.2372831848",
      "latitude": "47.7097869791"
    },
    "model": "safe_eats_app.restaurantinfo",
    "pk": "PR0069891"
  },
  {
    "fields": {
      "business_name": "AMAZON.COM.DEDC",
      "address": "11710 118th AVE NE BLDG B",
      "city": "KIRKLAND",
      "zip_code": "98034",
      "longitude": "-122.1826407700",
      "latitude": "47.7053430200"
    },
    "model": "safe_eats_app.restaurantinfo",
    "pk": "PR0084985"
  },
  {
    "fields": {
      "business_name": "AMBASSADOR WINES OF WASHINGTON - TASTING ROOM/VARIANCE",
      "address": "19501 144TH AVE NE D-500",
      "city": "WOODINVILLE",
      "zip_code": "98072",
      "longitude": "-122.1512380000",
      "latitude": "47.7693970000"
    },
    "model": "safe_eats_app.restaurantinfo",
    "pk": "PR0083810"
  },
  {
    "fields": {
      "business_name": "AMBAUM GROCERY/KSOL INC",
      "address": "12609 AMBAUM BL SW ",
      "city": "SEATTLE",
      "zip_code": "98146",
      "longitude": "-122.3504200420",
      "latitude": "47.4899552610"
    },
    "model": "safe_eats_app.restaurantinfo",
    "pk": "PR0004271"
  },
  {
    "fields": {
      "business_name": "AMC THEATRES KENT STATION 14",
      "address": "426 RAMSEY WAY ",
      "city": "KENT",
      "zip_code": "98032",
      "longitude": "-122.2340700000",
      "latitude": "47.3847300000"
    },
    "model": "safe_eats_app.restaurantinfo",
    "pk": "PR0072090"
  },
  {
    "fields": {
      "business_name": "AMC THEATRES WOODINVILLE 12",
      "address": "17640 GARDEN WAY NE",
      "city": "Woodinville",
      "zip_code": "98072",
      "longitude": "-122.1542444401",
      "latitude": "47.7559320975"
    },
    "model": "safe_eats_app.restaurantinfo",
    "pk": "PR0052492"
  },
  {
    "fields": {
      "business_name": "AMERICAN LEGION POST #15",
      "address": "25405 97TH PL S ",
      "city": "Kent",
      "zip_code": "98030",
      "longitude": "-122.2112775354",
      "latitude": "47.3745000868"
    },
    "model": "safe_eats_app.restaurantinfo",
    "pk": "PR0017332"
  },
  {
    "fields": {
      "business_name": "AMICUS CURIAE",
      "address": "209 E MEEKER ST",
      "city": "KENT",
      "zip_code": "98032",
      "longitude": "-122.2318556200",
      "latitude": "47.3817744000"
    },
    "model": "safe_eats_app.restaurantinfo",
    "pk": "PR0081263"
  },
  {
    "fields": {
      "business_name": "AMLAG & QUIBUYEN LLC",
      "address": "5604 DELRIDGE WAY SW",
      "city": "SEATTLE",
      "zip_code": "98106",
      "longitude": "-122.3627218400",
      "latitude": "47.5516713300"
    },
    "model": "safe_eats_app.restaurantinfo",
    "pk": "PR0084299"
  },
  {
    "fields": {
      "business_name": "AMMANA HOUSEWARE AND GROCERY, LLC",
      "address": "5503 M L KING JR WAY S",
      "city": "SEATTLE",
      "zip_code": "98118",
      "longitude": "-122.2888926430",
      "latitude": "47.5523005192"
    },
    "model": "safe_eats_app.restaurantinfo",
    "pk": "PR0081678"
  },
  {
    "fields": {
      "business_name": "ANDIES RESTAURANT, INC.",
      "address": "530 W MAIN ST",
      "city": "Auburn",
      "zip_code": "98001",
      "longitude": "-122.2363661670",
      "latitude": "47.3072961995"
    },
    "model": "safe_eats_app.restaurantinfo",
    "pk": "PR0005148"
  },
  {
    "fields": {
      "business_name": "ANDY'S ESPRESSO",
      "address": "150 SW 160TH ST ",
      "city": "BURIEN",
      "zip_code": "98166",
      "longitude": "-122.3361753111",
      "latitude": "47.4599908273"
    },
    "model": "safe_eats_app.restaurantinfo",
    "pk": "PR0054955"
  },
  {
    "fields": {
      "business_name": "ANDY'S HANDY MART",
      "address": "150 SW 160TH ST ",
      "city": "BURIEN",
      "zip_code": "98166",
      "longitude": "-122.3361753142",
      "latitude": "47.4599908231"
    },
    "model": "safe_eats_app.restaurantinfo",
    "pk": "PR0004318"
  },
  {
    "fields": {
      "business_name": "ANGELICA'S RESTAURANT",
      "address": "2323 SW 336 ST",
      "city": "Federal Way",
      "zip_code": "98023",
      "longitude": "-122.3638551200",
      "latitude": "47.3005282597"
    },
    "model": "safe_eats_app.restaurantinfo",
    "pk": "PR0024334"
  },
  {
    "fields": {
      "business_name": "ANITA'S MEXICAN FOOD (KC458)",
      "address": "10334 AURORA AVE N",
      "city": "SEATTLE",
      "zip_code": "98133",
      "longitude": "-122.3443813700",
      "latitude": "47.7043925000"
    },
    "model": "safe_eats_app.restaurantinfo",
    "pk": "PR0085550"
  },
  {
    "fields": {
      "business_name": "ANTHONY'S HOME PORT",
      "address": "135 LAKE ST S ",
      "city": "Kirkland",
      "zip_code": "98033",
      "longitude": "-122.2061242243",
      "latitude": "47.6741723832"
    },
    "model": "safe_eats_app.restaurantinfo",
    "pk": "PR0006074"
  },
  {
    "fields": {
      "business_name": "ANTHONYS @ SEATAC",
      "address": "SEA-TAC AIRPORT Main",
      "city": "SEA TAC",
      "zip_code": "98158",
      "longitude": "-122.3022800000",
      "latitude": "47.4436200000"
    },
    "model": "safe_eats_app.restaurantinfo",
    "pk": "PR0071280"
  },
  {
    "fields": {
      "business_name": "ANTOJITOS LOCOS",
      "address": "123 SW 152ND ST",
      "city": "BURIEN",
      "zip_code": "98166",
      "longitude": "-122.3349386400",
      "latitude": "47.4666378500"
    },
    "model": "safe_eats_app.restaurantinfo",
    "pk": "PR0084784"
  },
  {
    "fields": {
      "business_name": "ANTONY'S FRUTAS Y ANTOJITOS LOCOS, LLC",
      "address": "3312 AUBURN WAY S STE#E",
      "city": "AUBURN",
      "zip_code": "98092",
      "longitude": "-122.1837987800",
      "latitude": "47.2888080500"
    },
    "model": "safe_eats_app.restaurantinfo",
    "pk": "PR0085866"
  },
  {
    "fields": {
      "business_name": "APNA BAZAR",
      "address": "516 228TH AVE NE",
      "city": "SAMMAMISH",
      "zip_code": "98074",
      "longitude": "-122.0337025500",
      "latitude": "47.6142257100"
    },
    "model": "safe_eats_app.restaurantinfo",
    "pk": "PR0081916"
  },
  {
    "fields": {
      "business_name": "APOGEE PUB & RESTAURANT",
      "address": "14525 SE 171ST WAY ",
      "city": "Renton",
      "zip_code": "98058",
      "longitude": "-122.1483856246",
      "latitude": "47.4449800315"
    },
    "model": "safe_eats_app.restaurantinfo",
    "pk": "PR0005150"
  },
  {
    "fields": {
      "business_name": "APOLLO ELEMENTARY SCHOOL",
      "address": "15025 SE 117TH ST ",
      "city": "Renton",
      "zip_code": "98059",
      "longitude": "-122.1388655512",
      "latitude": "47.4973472124"
    },
    "model": "safe_eats_app.restaurantinfo",
    "pk": "PR0005151"
  },
  {
    "fields": {
      "business_name": "APPLE TERIYAKI",
      "address": "11523 AVONDALE RD NE",
      "city": "REDMOND",
      "zip_code": "98052",
      "longitude": "-122.0935946097",
      "latitude": "47.7027892742"
    },
    "model": "safe_eats_app.restaurantinfo",
    "pk": "PR0076500"
  },
  {
    "fields": {
      "business_name": "APPLE TERIYAKI",
      "address": "27400 PACIFIC HWY S B",
      "city": "FEDERAL WAY",
      "zip_code": "98003",
      "longitude": "-122.3092539811",
      "latitude": "47.3563254644"
    },
    "model": "safe_eats_app.restaurantinfo",
    "pk": "PR0072206"
  },
  {
    "fields": {
      "business_name": "ARAMARK  @ CONVENTION PLACE",
      "address": "800 CONVENTION PL 4TH FLOOR",
      "city": "SEATTLE",
      "zip_code": "98101",
      "longitude": "-122.3316780000",
      "latitude": "47.6117740000"
    },
    "model": "safe_eats_app.restaurantinfo",
    "pk": "PR0084592"
  },
  {
    "fields": {
      "business_name": "ARAMARK  @ CONVENTION PLACE",
      "address": "800 CONVENTION PL ",
      "city": "Seattle",
      "zip_code": "98101",
      "longitude": "-122.3316780268",
      "latitude": "47.6117737434"
    },
    "model": "safe_eats_app.restaurantinfo",
    "pk": "PR0018288"
  },
  {
    "fields": {
      "business_name": "ARBAT INT'L FOOD MARKET",
      "address": "12053 124TH AVE NE ",
      "city": "Kirkland",
      "zip_code": "98034",
      "longitude": "-122.1771430290",
      "latitude": "47.7064069560"
    },
    "model": "safe_eats_app.restaurantinfo",
    "pk": "PR0047040"
  },
  {
    "fields": {
      "business_name": "ARBOR, THE (CRISTA)",
      "address": "19303 FREMONT AVE N ",
      "city": "SHORELINE",
      "zip_code": "98133",
      "longitude": "-122.3542225017",
      "latitude": "47.7693874547"
    },
    "model": "safe_eats_app.restaurantinfo",
    "pk": "PR0051806"
  },
  {
    "fields": {
      "business_name": "ARBY'S  #6098",
      "address": "140 15TH AVE NE",
      "city": "AUBURN",
      "zip_code": "98002",
      "longitude": "-122.2274065166",
      "latitude": "47.3204840033"
    },
    "model": "safe_eats_app.restaurantinfo",
    "pk": "PR0005720"
  },
  {
    "fields": {
      "business_name": "ARBY'S #6409",
      "address": "15115 NE 24TH ST",
      "city": "REDMOND",
      "zip_code": "98052",
      "longitude": "-122.1390069053",
      "latitude": "47.6312862157"
    },
    "model": "safe_eats_app.restaurantinfo",
    "pk": "PR0042050"
  },
  {
    "fields": {
      "business_name": "ARBY'S , #7842",
      "address": "34404 16TH AVE S ",
      "city": "FEDERAL WAY",
      "zip_code": "98003",
      "longitude": "-122.3132403905",
      "latitude": "47.2933175044"
    },
    "model": "safe_eats_app.restaurantinfo",
    "pk": "PR0076508"
  },
  {
    "fields": {
      "business_name": "ARBY'S 502",
      "address": "15822 1ST AVE S ",
      "city": "Seattle",
      "zip_code": "98148",
      "longitude": "-122.3334889859",
      "latitude": "47.4612942913"
    },
    "model": "safe_eats_app.restaurantinfo",
    "pk": "PR0004324"
  },
  {
    "fields": {
      "business_name": "ARCO",
      "address": "27 15TH ST NE",
      "city": "Auburn",
      "zip_code": "98002",
      "longitude": "-122.2292236096",
      "latitude": "47.3211342527"
    },
    "model": "safe_eats_app.restaurantinfo",
    "pk": "PR0031964"
  },
  {
    "fields": {
      "business_name": "ARCO  AM/PM  #82611",
      "address": "24001 PACIFIC HWY S ",
      "city": "Kent",
      "zip_code": "98032",
      "longitude": "-122.2970953685",
      "latitude": "47.3859967751"
    },
    "model": "safe_eats_app.restaurantinfo",
    "pk": "PR0016685"
  },
  {
    "fields": {
      "business_name": "ARCO AM/PM",
      "address": "800 FRONT ST N",
      "city": "ISSAQUAH",
      "zip_code": "98027",
      "longitude": "-122.0358805800",
      "latitude": "47.5384686200"
    },
    "model": "safe_eats_app.restaurantinfo",
    "pk": "PR0080339"
  },
  {
    "fields": {
      "business_name": "ARCO AM/PM",
      "address": "17450 SE 272ND ST ",
      "city": "COVINGTON",
      "zip_code": "98042",
      "longitude": "-122.1077703597",
      "latitude": "47.3585541289"
    },
    "model": "safe_eats_app.restaurantinfo",
    "pk": "PR0019728"
  },
  {
    "fields": {
      "business_name": "ARCO AM/PM",
      "address": "13055 NE 70TH PL ",
      "city": "Kirkland",
      "zip_code": "98033",
      "longitude": "-122.1644550219",
      "latitude": "47.6664782189"
    },
    "model": "safe_eats_app.restaurantinfo",
    "pk": "PR0020633"
  },
  {
    "fields": {
      "business_name": "ARCO AM/PM",
      "address": "1809 W MEEKER ST ",
      "city": "Kent",
      "zip_code": "98032",
      "longitude": "-122.2591873473",
      "latitude": "47.3815064821"
    },
    "model": "safe_eats_app.restaurantinfo",
    "pk": "PR0017963"
  },
  {
    "fields": {
      "business_name": "ARCO AM/PM #6530",
      "address": "251 RAINIER AVE N",
      "city": "RENTON",
      "zip_code": "98057",
      "longitude": "-122.2184114978",
      "latitude": "47.4851102535"
    },
    "model": "safe_eats_app.restaurantinfo",
    "pk": "PR0068048"
  },
  {
    "fields": {
      "business_name": "ARCO AM/PM MINI MART 5527",
      "address": "312 ROOSEVELT AVE ",
      "city": "ENUMCLAW",
      "zip_code": "98022",
      "longitude": "-121.9820027889",
      "latitude": "47.1992142118"
    },
    "model": "safe_eats_app.restaurantinfo",
    "pk": "PR0018014"
  },
  {
    "fields": {
      "business_name": "ARCO WOODINVILLE #05481",
      "address": "15520 NE WOODINVILLE DUVALL RD",
      "city": "Woodinville",
      "zip_code": "98072",
      "longitude": "-122.1321860000",
      "latitude": "47.7619790000"
    },
    "model": "safe_eats_app.restaurantinfo",
    "pk": "PR0018263"
  },
  {
    "fields": {
      "business_name": "ARCTIC MINI MART",
      "address": "19246 15TH AVE NE",
      "city": "LAKE FOREST PARK",
      "zip_code": "98155",
      "longitude": "-122.3135336900",
      "latitude": "47.7696128900"
    },
    "model": "safe_eats_app.restaurantinfo",
    "pk": "PR0080342"
  },
  {
    "fields": {
      "business_name": "ARDMORE ELEMENTARY SCHOOL",
      "address": "16616 NE 32ND ST",
      "city": "BELLEVUE",
      "zip_code": "98008",
      "longitude": "-122.1179287200",
      "latitude": "47.6394913700"
    },
    "model": "safe_eats_app.restaurantinfo",
    "pk": "PR0080932"
  },
  {
    "fields": {
      "business_name": "ARENA SPORTS ISSAQUAH",
      "address": "2115 N POPLAR WAY ",
      "city": "ISSAQUAH",
      "zip_code": "98027",
      "longitude": "-122.0693781018",
      "latitude": "47.5509681577"
    },
    "model": "safe_eats_app.restaurantinfo",
    "pk": "PR0083329"
  },
  {
    "fields": {
      "business_name": "ARGOSY",
      "address": "1101 ALASKAN WAY 201",
      "city": "Seattle",
      "zip_code": "98101",
      "longitude": "-122.3399337292",
      "latitude": "47.6047874245"
    },
    "model": "safe_eats_app.restaurantinfo",
    "pk": "PR0008724"
  },
  {
    "fields": {
      "business_name": "ARGOSY",
      "address": "1101 ALASKAN WAY 201",
      "city": "Seattle",
      "zip_code": "98101",
      "longitude": "-122.3399337292",
      "latitude": "47.6047874245"
    },
    "model": "safe_eats_app.restaurantinfo",
    "pk": "PR0012133"
  },
  {
    "fields": {
      "business_name": "ARGOSY",
      "address": "1101 ALASKAN WAY 201",
      "city": "Seattle",
      "zip_code": "98101",
      "longitude": "-122.3399337292",
      "latitude": "47.6047874245"
    },
    "model": "safe_eats_app.restaurantinfo",
    "pk": "PR0008723"
  },
  {
    "fields": {
      "business_name": "ARGOSY",
      "address": "1101 ALASKAN WAY 201",
      "city": "Seattle",
      "zip_code": "98101",
      "longitude": "-122.3399337292",
      "latitude": "47.6047874245"
    },
    "model": "safe_eats_app.restaurantinfo",
    "pk": "PR0017928"
  },
  {
    "fields": {
      "business_name": "ARIA FOOD & BAKERY",
      "address": "12033 124TH AVE NE",
      "city": "KIRKLAND",
      "zip_code": "98034",
      "longitude": "-122.1766967600",
      "latitude": "47.7063673200"
    },
    "model": "safe_eats_app.restaurantinfo",
    "pk": "PR0083059"
  },
  {
    "fields": {
      "business_name": "ARIELLE'S GOURMET CUP",
      "address": "23822 104TH AVE SE",
      "city": "KENT",
      "zip_code": "98031",
      "longitude": "-122.2006010000",
      "latitude": "47.3881520000"
    },
    "model": "safe_eats_app.restaurantinfo",
    "pk": "PR0064344"
  },
  {
    "fields": {
      "business_name": "ARISTA",
      "address": "1920 DEXTER AVE",
      "city": "SEATTLE",
      "zip_code": "98109",
      "longitude": "-122.3421560300",
      "latitude": "47.6364433300"
    },
    "model": "safe_eats_app.restaurantinfo",
    "pk": "PR0082304"
  },
  {
    "fields": {
      "business_name": "ARMOIRE CHOCOLAT",
      "address": "825 SW 152ND ST",
      "city": "BURIEN",
      "zip_code": "98166",
      "longitude": "-122.3455916100",
      "latitude": "47.4666311300"
    },
    "model": "safe_eats_app.restaurantinfo",
    "pk": "PR0004445"
  },
  {
    "fields": {
      "business_name": "ARMSTRONG FAMILY WINERY LLC",
      "address": "19151 144TH AVE NE UNIT 1",
      "city": "WOODINVILLE",
      "zip_code": "98072",
      "longitude": "-122.1484660000",
      "latitude": "47.7663690000"
    },
    "model": "safe_eats_app.restaurantinfo",
    "pk": "PR0082904"
  },
  {
    "fields": {
      "business_name": "ARROWHEAD ELEMENTARY SCHOOL",
      "address": "6725 NE ARROWHEAD DR ",
      "city": "KENMORE",
      "zip_code": "98028",
      "longitude": "-122.2516905155",
      "latitude": "47.7370589011"
    },
    "model": "safe_eats_app.restaurantinfo",
    "pk": "PR0006080"
  },
  {
    "fields": {
      "business_name": "ARTHUR JACOBSEN ELEM SCHOOL",
      "address": "29231 132ND AVE SE ",
      "city": "AUBURN",
      "zip_code": "98092",
      "longitude": "-122.1657827597",
      "latitude": "47.3399871980"
    },
    "model": "safe_eats_app.restaurantinfo",
    "pk": "PR0076948"
  },
  {
    "fields": {
      "business_name": "ARTISTS STUDIO LOFT B & B",
      "address": "16529 91ST AVE SW ",
      "city": "VASHON ISLAND",
      "zip_code": "98070",
      "longitude": "-122.4510544058",
      "latitude": "47.4569785664"
    },
    "model": "safe_eats_app.restaurantinfo",
    "pk": "PR0072227"
  },
  {
    "fields": {
      "business_name": "ARTURO'S MEX-RESTAURANT",
      "address": "22204 MARINE VIEW DR S",
      "city": "DES MOINES",
      "zip_code": "98198",
      "longitude": "-122.3241092100",
      "latitude": "47.4029662300"
    },
    "model": "safe_eats_app.restaurantinfo",
    "pk": "PR0081812"
  },
  {
    "fields": {
      "business_name": "ASADERO SINALOA INC",
      "address": "24602 36TH AVE S",
      "city": "KENT",
      "zip_code": "98032",
      "longitude": "-122.2860045800",
      "latitude": "47.3812533800"
    },
    "model": "safe_eats_app.restaurantinfo",
    "pk": "PR0082521"
  },
  {
    "fields": {
      "business_name": "ASENSIO COFFEE",
      "address": "33610 21ST AVE SW ",
      "city": "FEDERAL WAY",
      "zip_code": "98023",
      "longitude": "-122.3593508546",
      "latitude": "47.3002589203"
    },
    "model": "safe_eats_app.restaurantinfo",
    "pk": "PR0051918"
  },
  {
    "fields": {
      "business_name": "ASGARD - SOUTHCENTER",
      "address": "402 BAKER BL",
      "city": "TUKWILA",
      "zip_code": "98188",
      "longitude": "-122.2520750000",
      "latitude": "47.4585530000"
    },
    "model": "safe_eats_app.restaurantinfo",
    "pk": "PR0084259"
  },
  {
    "fields": {
      "business_name": "ASHLEY FURNITURE HOMESTORE",
      "address": "17601 SOUTHCENTER PKWY",
      "city": "TUKWILA",
      "zip_code": "98188",
      "longitude": "-122.2626006700",
      "latitude": "47.4439120500"
    },
    "model": "safe_eats_app.restaurantinfo",
    "pk": "PR0080800"
  },
  {
    "fields": {
      "business_name": "ASIA GINGER TERIYAKI",
      "address": "1250 SW 43RD ST #C",
      "city": "RENTON",
      "zip_code": "98057",
      "longitude": "-122.2340518240",
      "latitude": "47.4416268680"
    },
    "model": "safe_eats_app.restaurantinfo",
    "pk": "PR0066546"
  },
  {
    "fields": {
      "business_name": "ASIAN EXPRESS",
      "address": "2122 14TH AVE S ",
      "city": "Seattle",
      "zip_code": "98144",
      "longitude": "-122.3144441712",
      "latitude": "47.5838314629"
    },
    "model": "safe_eats_app.restaurantinfo",
    "pk": "PR0002770"
  },
  {
    "fields": {
      "business_name": "ASIAN PACIFIC MARKET AND DELI",
      "address": "25644 104TH AVE SE",
      "city": "Kent",
      "zip_code": "98030",
      "longitude": "-122.2021640494",
      "latitude": "47.3720719226"
    },
    "model": "safe_eats_app.restaurantinfo",
    "pk": "PR0083433"
  },
  {
    "fields": {
      "business_name": "ASIANA TERIYAKI",
      "address": "920 15TH ST SW 103",
      "city": "AUBURN",
      "zip_code": "98001",
      "longitude": "-122.2394040953",
      "latitude": "47.2955782849"
    },
    "model": "safe_eats_app.restaurantinfo",
    "pk": "PR0077365"
  },
  {
    "fields": {
      "business_name": "ASPEN",
      "address": "100 FRONT ST S",
      "city": "ISSAQUAH",
      "zip_code": "98027",
      "longitude": "-122.0361680000",
      "latitude": "47.5290050000"
    },
    "model": "safe_eats_app.restaurantinfo",
    "pk": "PR0083284"
  },
  {
    "fields": {
      "business_name": "ASSABR MINI MART",
      "address": "6727-C M L KING JR WAY S",
      "city": "SEATTLE",
      "zip_code": "98118",
      "longitude": "-122.2839179250",
      "latitude": "47.5421313191"
    },
    "model": "safe_eats_app.restaurantinfo",
    "pk": "PR0078100"
  },
  {
    "fields": {
      "business_name": "ASSOCIATED ESPRESSO",
      "address": "20241 84TH AVE S ",
      "city": "Kent",
      "zip_code": "98032",
      "longitude": "-122.2277228459",
      "latitude": "47.4206453812"
    },
    "model": "safe_eats_app.restaurantinfo",
    "pk": "PR0052086"
  },
  {
    "fields": {
      "business_name": "ASTON MANOR",
      "address": "2946 1ST AVE S",
      "city": "SEATTLE",
      "zip_code": "98134",
      "longitude": "-122.3338778800",
      "latitude": "47.5760557800"
    },
    "model": "safe_eats_app.restaurantinfo",
    "pk": "PR0082695"
  },
  {
    "fields": {
      "business_name": "ATELIER COFFEE COMPANY, LTD",
      "address": "5813 AIRPORT WAY S",
      "city": "SEATTLE",
      "zip_code": "98108",
      "longitude": "-122.3183220800",
      "latitude": "47.5503946500"
    },
    "model": "safe_eats_app.restaurantinfo",
    "pk": "PR0084847"
  },
  {
    "fields": {
      "business_name": "ATHENA'S #KC561",
      "address": "4538 UNIVERSITY WAY NE",
      "city": "SEATTLE",
      "zip_code": "98105",
      "longitude": "-122.3127943300",
      "latitude": "47.6624590600"
    },
    "model": "safe_eats_app.restaurantinfo",
    "pk": "PR0085856"
  },
  {
    "fields": {
      "business_name": "ATHENS PIZZA & PASTA OF DES MOINES",
      "address": "22340 MARINE VIEW DR S #A",
      "city": "DES MOINES",
      "zip_code": "98198",
      "longitude": "-122.3240570682",
      "latitude": "47.4007086310"
    },
    "model": "safe_eats_app.restaurantinfo",
    "pk": "PR0054795"
  },
  {
    "fields": {
      "business_name": "ATRIUM CAFE @ OVERLAKE HOSPITAL",
      "address": "1035 116Th AVE NE",
      "city": "BELLEVUE",
      "zip_code": "98004",
      "longitude": "-122.1868533100",
      "latitude": "47.6203754900"
    },
    "model": "safe_eats_app.restaurantinfo",
    "pk": "PR0082336"
  },
  {
    "fields": {
      "business_name": "AUBURN ADVENTIST ACADEMY",
      "address": "5000 AUBURN WAY S ",
      "city": "Auburn",
      "zip_code": "98092",
      "longitude": "-122.1643401415",
      "latitude": "47.2820966232"
    },
    "model": "safe_eats_app.restaurantinfo",
    "pk": "PR0005159"
  },
  {
    "fields": {
      "business_name": "AUBURN EAGLES",
      "address": "702 M ST SE ",
      "city": "Auburn",
      "zip_code": "98002",
      "longitude": "-122.2130010991",
      "latitude": "47.3015907076"
    },
    "model": "safe_eats_app.restaurantinfo",
    "pk": "PR0011566"
  },
  {
    "fields": {
      "business_name": "AVALANCHE DELITE",
      "address": "1404 1ST ST",
      "city": "ENUMCLAW",
      "zip_code": "98022",
      "longitude": "-121.9892400000",
      "latitude": "47.2016100000"
    },
    "model": "safe_eats_app.restaurantinfo",
    "pk": "PR0082352"
  },
  {
    "fields": {
      "business_name": "AUBURN HIGH SCHOOL",
      "address": "711 E MAIN ST",
      "city": "AUBURN",
      "zip_code": "98002",
      "longitude": "-122.2197048400",
      "latitude": "47.3085954700"
    },
    "model": "safe_eats_app.restaurantinfo",
    "pk": "PR0084256"
  },
  {
    "fields": {
      "business_name": "AUBURN HIGH SCHOOL",
      "address": "711 E MAIN ST",
      "city": "AUBURN",
      "zip_code": "98002",
      "longitude": "-122.2197048400",
      "latitude": "47.3085954700"
    },
    "model": "safe_eats_app.restaurantinfo",
    "pk": "PR0084255"
  },
  {
    "fields": {
      "business_name": "AUBURN HIGH SCHOOL",
      "address": "711 E MAIN ST",
      "city": "AUBURN",
      "zip_code": "98002",
      "longitude": "-122.2197048400",
      "latitude": "47.3085954700"
    },
    "model": "safe_eats_app.restaurantinfo",
    "pk": "PR0084210"
  },
  {
    "fields": {
      "business_name": "AUBURN HIGH SCHOOL",
      "address": "711 E MAIN ST",
      "city": "AUBURN",
      "zip_code": "98002",
      "longitude": "-122.2197048400",
      "latitude": "47.3085954700"
    },
    "model": "safe_eats_app.restaurantinfo",
    "pk": "PR0084211"
  },
  {
    "fields": {
      "business_name": "AUBURN HIGH SCHOOL-MAIN GYM. CONCESSION",
      "address": "711 E MAIN ST",
      "city": "AUBURN",
      "zip_code": "98002",
      "longitude": "-122.2207130000",
      "latitude": "47.3097550000"
    },
    "model": "safe_eats_app.restaurantinfo",
    "pk": "PR0085433"
  },
  {
    "fields": {
      "business_name": "AUBURN MOUNTAINVIEW HS",
      "address": "28900 124TH AVE SE ",
      "city": "AUBURN",
      "zip_code": "98092",
      "longitude": "-122.1729234429",
      "latitude": "47.3422975547"
    },
    "model": "safe_eats_app.restaurantinfo",
    "pk": "PR0077247"
  },
  {
    "fields": {
      "business_name": "AUBURN MOUNTAINVIEW HS",
      "address": "28900 124TH AVE SE ",
      "city": "AUBURN",
      "zip_code": "98092",
      "longitude": "-122.1729234429",
      "latitude": "47.3422975547"
    },
    "model": "safe_eats_app.restaurantinfo",
    "pk": "PR0071896"
  },
  {
    "fields": {
      "business_name": "AUBURN MOUNTAINVIEW HS",
      "address": "28900 124TH AVE SE ",
      "city": "AUBURN",
      "zip_code": "98092",
      "longitude": "-122.1729234429",
      "latitude": "47.3422975547"
    },
    "model": "safe_eats_app.restaurantinfo",
    "pk": "PR0071897"
  },
  {
    "fields": {
      "business_name": "AUBURN MOUNTAINVIEW HS",
      "address": "28900 124TH AVE SE ",
      "city": "AUBURN",
      "zip_code": "98092",
      "longitude": "-122.1729234429",
      "latitude": "47.3422975547"
    },
    "model": "safe_eats_app.restaurantinfo",
    "pk": "PR0071898"
  },
  {
    "fields": {
      "business_name": "AUBURN RIVERSIDE HS",
      "address": "501 ORAVTZ RD",
      "city": "Auburn",
      "zip_code": "98092",
      "longitude": "-122.2203131893",
      "latitude": "47.2691767322"
    },
    "model": "safe_eats_app.restaurantinfo",
    "pk": "PR0046082"
  },
  {
    "fields": {
      "business_name": "AUBURN RIVERSIDE HS",
      "address": "501 ORAVTZ RD",
      "city": "Auburn",
      "zip_code": "98092",
      "longitude": "-122.2203131893",
      "latitude": "47.2691767322"
    },
    "model": "safe_eats_app.restaurantinfo",
    "pk": "PR0040071"
  },
  {
    "fields": {
      "business_name": "AUBURN SHELL / DAHABREH ENTERPRISE INC.",
      "address": "32002 MILITARY RD S",
      "city": "Auburn",
      "zip_code": "98001",
      "longitude": "-122.2830293458",
      "latitude": "47.3145427688"
    },
    "model": "safe_eats_app.restaurantinfo",
    "pk": "PR0011688"
  },
  {
    "fields": {
      "business_name": "AUBURN SKATE CONNECTION",
      "address": "1825 HOWARD RD",
      "city": "Auburn",
      "zip_code": "98002",
      "longitude": "-122.2063668365",
      "latitude": "47.2892279964"
    },
    "model": "safe_eats_app.restaurantinfo",
    "pk": "PR0005632"
  },
  {
    "fields": {
      "business_name": "AUBURN STADIUM  #17",
      "address": "1101 SUPERMALL WAY ",
      "city": "AUBURN",
      "zip_code": "98001",
      "longitude": "-122.2405209946",
      "latitude": "47.2993666200"
    },
    "model": "safe_eats_app.restaurantinfo",
    "pk": "PR0049090"
  },
  {
    "fields": {
      "business_name": "AUBURN SUBWAY",
      "address": "620 AUBURN WAY S ",
      "city": "Auburn",
      "zip_code": "98002",
      "longitude": "-122.2240212804",
      "latitude": "47.3017628887"
    },
    "model": "safe_eats_app.restaurantinfo",
    "pk": "PR0020181"
  },
  {
    "fields": {
      "business_name": "AUBURN VALLEY CHEVRON",
      "address": "1156 AUBURN WAY S ",
      "city": "Auburn",
      "zip_code": "98002",
      "longitude": "-122.2176594907",
      "latitude": "47.2976511800"
    },
    "model": "safe_eats_app.restaurantinfo",
    "pk": "PR0052848"
  },
  {
    "fields": {
      "business_name": "AUBURN WAY BIGFOOT JAVA",
      "address": "407 AUBURN WAY S ",
      "city": "AUBURN",
      "zip_code": "98002",
      "longitude": "-122.2261352477",
      "latitude": "47.3039081704"
    },
    "model": "safe_eats_app.restaurantinfo",
    "pk": "PR0071294"
  },
  {
    "fields": {
      "business_name": "AUBURN WINE & CAVIAR COMPANY",
      "address": "2402 A ST SE",
      "city": "AUBURN",
      "zip_code": "98002",
      "longitude": "-122.2284889947",
      "latitude": "47.2871321952"
    },
    "model": "safe_eats_app.restaurantinfo",
    "pk": "PR0077754"
  },
  {
    "fields": {
      "business_name": "AUBURN'S MAIN STREET MARKET",
      "address": "1119 E MAIN ST ",
      "city": "Auburn",
      "zip_code": "98002",
      "longitude": "-122.2141170685",
      "latitude": "47.3084505568"
    },
    "model": "safe_eats_app.restaurantinfo",
    "pk": "PR0007534"
  },
  {
    "fields": {
      "business_name": "AUDUBON ELEMENTARY - KITCHEN",
      "address": "3045 180TH AVE NE",
      "city": "Redmond",
      "zip_code": "98052",
      "longitude": "-122.1005452329",
      "latitude": "47.6371756115"
    },
    "model": "safe_eats_app.restaurantinfo",
    "pk": "PR0055056"
  },
  {
    "fields": {
      "business_name": "AUGUST MOON",
      "address": "2904 228TH AVE SE ",
      "city": "SAMMAMISH",
      "zip_code": "98075",
      "longitude": "-122.0347179463",
      "latitude": "47.5840698012"
    },
    "model": "safe_eats_app.restaurantinfo",
    "pk": "PR0027115"
  },
  {
    "fields": {
      "business_name": "AUNTIE ANNE'S PRETZELS",
      "address": "2040 BELLEVUE SQUARE",
      "city": "BELLEVUE",
      "zip_code": "98004",
      "longitude": "-122.2039886197",
      "latitude": "47.6165698440"
    },
    "model": "safe_eats_app.restaurantinfo",
    "pk": "PR0064091"
  },
  {
    "fields": {
      "business_name": "AUNTIE ANNE'S PRETZELS",
      "address": "546 SOUTHCENTER MALL ",
      "city": "TUKWILA",
      "zip_code": "98188",
      "longitude": "-122.2588942808",
      "latitude": "47.4586368008"
    },
    "model": "safe_eats_app.restaurantinfo",
    "pk": "PR0077396"
  },
  {
    "fields": {
      "business_name": "AUNTIE ANNE'S PRETZELS",
      "address": "1120 SOUTHCENTER MALL",
      "city": "TUKWILA",
      "zip_code": "98188",
      "longitude": "-122.2580400000",
      "latitude": "47.4591100000"
    },
    "model": "safe_eats_app.restaurantinfo",
    "pk": "PR0077433"
  },
  {
    "fields": {
      "business_name": "AUNTIE ANNE'S SOFT PRETZELS",
      "address": "1101 SUPERMALL WAY KIOS #2",
      "city": "AUBURN",
      "zip_code": "98001",
      "longitude": "-122.2464180000",
      "latitude": "47.2991110000"
    },
    "model": "safe_eats_app.restaurantinfo",
    "pk": "PR0082830"
  },
  {
    "fields": {
      "business_name": "AUNTIE IRENE'S",
      "address": "22504 MARINE VIEW DR S",
      "city": "DES MOINES",
      "zip_code": "98198",
      "longitude": "-122.3242259851",
      "latitude": "47.4003847104"
    },
    "model": "safe_eats_app.restaurantinfo",
    "pk": "PR0049159"
  },
  {
    "fields": {
      "business_name": "AURA",
      "address": "116 CENTRAL WAY",
      "city": "KIRKLAND",
      "zip_code": "98033",
      "longitude": "-122.2075561200",
      "latitude": "47.6766545900"
    },
    "model": "safe_eats_app.restaurantinfo",
    "pk": "PR0083447"
  },
  {
    "fields": {
      "business_name": "AURORA 76",
      "address": "8408 AURORA AVE N ",
      "city": "Seattle",
      "zip_code": "98103",
      "longitude": "-122.3440863597",
      "latitude": "47.6902232718"
    },
    "model": "safe_eats_app.restaurantinfo",
    "pk": "PR0014539"
  },
  {
    "fields": {
      "business_name": "AZAFRAN BISTRO & TAPAS BAR",
      "address": "23631 MAPLE VALLEY BLK DIAMOND HWY SE ",
      "city": "Maple Valley",
      "zip_code": "98038",
      "longitude": "-122.0443997737",
      "latitude": "47.3894751368"
    },
    "model": "safe_eats_app.restaurantinfo",
    "pk": "PR0005308"
  },
  {
    "fields": {
      "business_name": "AZTECA MEXICAN RESTAURANT",
      "address": "32015 23RD AVE S # A",
      "city": "Federal Way",
      "zip_code": "98003",
      "longitude": "-122.3041674530",
      "latitude": "47.3145305963"
    },
    "model": "safe_eats_app.restaurantinfo",
    "pk": "PR0047212"
  },
  {
    "fields": {
      "business_name": "AZTECA MEXICAN RESTAURANT",
      "address": "150 112TH AVE NE ",
      "city": "Bellevue",
      "zip_code": "98004",
      "longitude": "-122.1894496781",
      "latitude": "47.6116782839"
    },
    "model": "safe_eats_app.restaurantinfo",
    "pk": "PR0006270"
  },
  {
    "fields": {
      "business_name": "AZTECA RESTAURANT",
      "address": "17555 SOUTHCENTER PKWY ",
      "city": "Seattle",
      "zip_code": "98188",
      "longitude": "-122.2620975266",
      "latitude": "47.4458899422"
    },
    "model": "safe_eats_app.restaurantinfo",
    "pk": "PR0004396"
  },
  {
    "fields": {
      "business_name": "AZUMA SUSHI",
      "address": "4529 CALIFORNIA AVE SW ",
      "city": "Seattle",
      "zip_code": "98116",
      "longitude": "-122.3870963173",
      "latitude": "47.5621317968"
    },
    "model": "safe_eats_app.restaurantinfo",
    "pk": "PR0003280"
  },
  {
    "fields": {
      "business_name": "B & E MEATS & SEAFOOD",
      "address": "2401 QUEEN ANNE AVE N ",
      "city": "SEATTLE",
      "zip_code": "98109",
      "longitude": "-122.3573489099",
      "latitude": "47.6396926870"
    },
    "model": "safe_eats_app.restaurantinfo",
    "pk": "PR0007229"
  },
  {
    "fields": {
      "business_name": "B & E MEATS & SEAFOOD, INC.",
      "address": "22501 MARINE VIEW DR S ",
      "city": "Seattle",
      "zip_code": "98198",
      "longitude": "-122.3249954201",
      "latitude": "47.4002899716"
    },
    "model": "safe_eats_app.restaurantinfo",
    "pk": "PR0007295"
  },
  {
    "fields": {
      "business_name": "B F DAY ELEMENTARY SCHOOL KITC",
      "address": "3921 LINDEN AVE N ",
      "city": "Seattle",
      "zip_code": "98103",
      "longitude": "-122.3491237220",
      "latitude": "47.6546354618"
    },
    "model": "safe_eats_app.restaurantinfo",
    "pk": "PR0001097"
  },
  {
    "fields": {
      "business_name": "B&E MEATS AND SEAFOOD",
      "address": "15003 AMBAUM BL SW ",
      "city": "BURIEN",
      "zip_code": "98166",
      "longitude": "-122.3463183586",
      "latitude": "47.4683028742"
    },
    "model": "safe_eats_app.restaurantinfo",
    "pk": "PR0070968"
  },
  {
    "fields": {
      "business_name": "BA MIEN SEAFOOD MARKET",
      "address": "6951 M L KING JR WAY S ",
      "city": "SEATTLE",
      "zip_code": "98118",
      "longitude": "-122.2831149823",
      "latitude": "47.5393131493"
    },
    "model": "safe_eats_app.restaurantinfo",
    "pk": "PR0069003"
  },
  {
    "fields": {
      "business_name": "BA MIEN SEAFOOD MARKET",
      "address": "6951 M L KING JR WAY S ",
      "city": "SEATTLE",
      "zip_code": "98118",
      "longitude": "-122.2831149823",
      "latitude": "47.5393131493"
    },
    "model": "safe_eats_app.restaurantinfo",
    "pk": "PR0068917"
  },
  {
    "fields": {
      "business_name": "BACCO CAFE , LLC",
      "address": "86 PINE ST",
      "city": "Seattle",
      "zip_code": "98101",
      "longitude": "-122.3414391205",
      "latitude": "47.6098858170"
    },
    "model": "safe_eats_app.restaurantinfo",
    "pk": "PR0033240"
  },
  {
    "fields": {
      "business_name": "BACK ALLEY BREW, LLC",
      "address": "4218 338TH PL SE",
      "city": "FALL CITY",
      "zip_code": "98024",
      "longitude": "-121.8883180000",
      "latitude": "47.5668810000"
    },
    "model": "safe_eats_app.restaurantinfo",
    "pk": "PR0042763"
  },
  {
    "fields": {
      "business_name": "BACON MANSION, LLC",
      "address": "959 BROADWAY E ",
      "city": "SEATTLE",
      "zip_code": "98102",
      "longitude": "-122.3216585013",
      "latitude": "47.6284691811"
    },
    "model": "safe_eats_app.restaurantinfo",
    "pk": "PR0072015"
  },
  {
    "fields": {
      "business_name": "BAHATI",
      "address": "5212 RAINIER AVE S ",
      "city": "Seattle",
      "zip_code": "98118",
      "longitude": "-122.2828799058",
      "latitude": "47.5557469244"
    },
    "model": "safe_eats_app.restaurantinfo",
    "pk": "PR0010591"
  },
  {
    "fields": {
      "business_name": "BAI TONG THAI RESTAURANT",
      "address": "16876 SOUTHCENTER PKWY ",
      "city": "TUKWILA",
      "zip_code": "98188",
      "longitude": "-122.2621972514",
      "latitude": "47.4524642849"
    },
    "model": "safe_eats_app.restaurantinfo",
    "pk": "PR0067450"
  },
  {
    "fields": {
      "business_name": "BAI TONG THAI RESTAURANT",
      "address": "14804 NE 24TH ST ",
      "city": "Redmond",
      "zip_code": "98052",
      "longitude": "-122.1417330045",
      "latitude": "47.6318192180"
    },
    "model": "safe_eats_app.restaurantinfo",
    "pk": "PR0006205"
  },
  {
    "fields": {
      "business_name": "BAILEY GATZERT ELEMENTARY",
      "address": "1301 E YESLER WAY ",
      "city": "Seattle",
      "zip_code": "98122",
      "longitude": "-122.3156076391",
      "latitude": "47.6011442523"
    },
    "model": "safe_eats_app.restaurantinfo",
    "pk": "PR0020855"
  },
  {
    "fields": {
      "business_name": "BAJA BURRITO",
      "address": "1702 AUBURN WAY N STE G",
      "city": "AUBURN",
      "zip_code": "98002",
      "longitude": "-122.2202162541",
      "latitude": "47.3245758415"
    },
    "model": "safe_eats_app.restaurantinfo",
    "pk": "PR0076446"
  },
  {
    "fields": {
      "business_name": "BAKE'S",
      "address": "155 108TH AVE NE",
      "city": "BELLEVUE",
      "zip_code": "98004",
      "longitude": "-122.1965979000",
      "latitude": "47.6114964600"
    },
    "model": "safe_eats_app.restaurantinfo",
    "pk": "PR0082349"
  },
  {
    "fields": {
      "business_name": "BAKED",
      "address": "2604 CALIFORNIA AVE SW",
      "city": "SEATTLE",
      "zip_code": "98116",
      "longitude": "-122.3862299800",
      "latitude": "47.5808954000"
    },
    "model": "safe_eats_app.restaurantinfo",
    "pk": "PR0081674"
  },
  {
    "fields": {
      "business_name": "BAKERS DOZEN CUPCAKES & ESPRESSO",
      "address": "1928 S COMMONS MALL H-05",
      "city": "FEDERAL WAY",
      "zip_code": "98003",
      "longitude": "-122.3082300000",
      "latitude": "47.3133800000"
    },
    "model": "safe_eats_app.restaurantinfo",
    "pk": "PR0011812"
  },
  {
    "fields": {
      "business_name": "BALKAN MARKET",
      "address": "146 SW 153rd ST ",
      "city": "BURIEN",
      "zip_code": "98166",
      "longitude": "-122.3351334356",
      "latitude": "47.4661470780"
    },
    "model": "safe_eats_app.restaurantinfo",
    "pk": "PR0072038"
  },
  {
    "fields": {
      "business_name": "BALLARD ELKS #827",
      "address": "6411 SEAVIEW AVE NW ",
      "city": "Seattle",
      "zip_code": "98107",
      "longitude": "-122.4081794359",
      "latitude": "47.6751307352"
    },
    "model": "safe_eats_app.restaurantinfo",
    "pk": "PR0002152"
  },
  {
    "fields": {
      "business_name": "BALLARD HIGH SCHOOL KITCHEN",
      "address": "1418 NW 65TH ST ",
      "city": "Seattle",
      "zip_code": "98117",
      "longitude": "-122.3754427878",
      "latitude": "47.6767075635"
    },
    "model": "safe_eats_app.restaurantinfo",
    "pk": "PR0001107"
  },
  {
    "fields": {
      "business_name": "BALLARD MARKET",
      "address": "1400 NW 56TH ST ",
      "city": "Seattle",
      "zip_code": "98107",
      "longitude": "-122.3743007113",
      "latitude": "47.6698391244"
    },
    "model": "safe_eats_app.restaurantinfo",
    "pk": "PR0012238"
  },
  {
    "fields": {
      "business_name": "BALLARD MARKET",
      "address": "1400 NW 56TH ST ",
      "city": "Seattle",
      "zip_code": "98107",
      "longitude": "-122.3743007113",
      "latitude": "47.6698391244"
    },
    "model": "safe_eats_app.restaurantinfo",
    "pk": "PR0068785"
  },
  {
    "fields": {
      "business_name": "BALLARD NUTRITION",
      "address": "5429 32ND AVE NW",
      "city": "Seattle",
      "zip_code": "98107",
      "longitude": "-122.3986682512",
      "latitude": "47.6683715110"
    },
    "model": "safe_eats_app.restaurantinfo",
    "pk": "PR0001687"
  },
  {
    "fields": {
      "business_name": "BAMBOO GARDEN TERIYAKI",
      "address": "17652 1ST AVE S",
      "city": "Seattle",
      "zip_code": "98148",
      "longitude": "-122.3331827242",
      "latitude": "47.4442183488"
    },
    "model": "safe_eats_app.restaurantinfo",
    "pk": "PR0018472"
  },
  {
    "fields": {
      "business_name": "BAMBU DESSERTS & DRINKS",
      "address": "18230 EAST VALLEY HWY #172",
      "city": "KENT",
      "zip_code": "98032",
      "longitude": "-122.2202658800",
      "latitude": "47.4387002800"
    },
    "model": "safe_eats_app.restaurantinfo",
    "pk": "PR0084099"
  },
  {
    "fields": {
      "business_name": "BANANAS GRILL",
      "address": "4556 M L KING JR WAY S",
      "city": "SEATTLE",
      "zip_code": "98108",
      "longitude": "-122.2938130000",
      "latitude": "47.5619900000"
    },
    "model": "safe_eats_app.restaurantinfo",
    "pk": "PR0081771"
  },
  {
    "fields": {
      "business_name": "BANGKOK GARDEN THAI  RESTAURANT",
      "address": "31509 PACIFIC HWY S ",
      "city": "FEDERAL WAY",
      "zip_code": "98003",
      "longitude": "-122.3146929924",
      "latitude": "47.3191422797"
    },
    "model": "safe_eats_app.restaurantinfo",
    "pk": "PR0067769"
  },
  {
    "fields": {
      "business_name": "BANNERWOOD SPORTS PARK / SEATTLE U",
      "address": "1790 RICHARDS RD",
      "city": "BELLEVUE",
      "zip_code": "98005",
      "longitude": "-122.1641674829",
      "latitude": "47.6256512129"
    },
    "model": "safe_eats_app.restaurantinfo",
    "pk": "PR0006092"
  },
  {
    "fields": {
      "business_name": "BAR CANTINETTA",
      "address": "2811 E MADISON ST",
      "city": "SEATTLE",
      "zip_code": "98112",
      "longitude": "-122.2955081587",
      "latitude": "47.6236160146"
    },
    "model": "safe_eats_app.restaurantinfo",
    "pk": "PR0076121"
  },
  {
    "fields": {
      "business_name": "BAR DEL CORSO",
      "address": "3057 BEACON AVE S",
      "city": "SEATTLE",
      "zip_code": "98144",
      "longitude": "-122.3095481900",
      "latitude": "47.5754306600"
    },
    "model": "safe_eats_app.restaurantinfo",
    "pk": "PR0081447"
  },
  {
    "fields": {
      "business_name": "BARCA",
      "address": "1510 11TH AVE ",
      "city": "SEATTLE",
      "zip_code": "98122",
      "longitude": "-122.3179000380",
      "latitude": "47.6142422827"
    },
    "model": "safe_eats_app.restaurantinfo",
    "pk": "PR0064012"
  },
  {
    "fields": {
      "business_name": "BARNES & NOBLE BOOKSELLERS #2910",
      "address": "18025 GARDEN WAY NE ",
      "city": "WOODINVILLE",
      "zip_code": "98072",
      "longitude": "-122.1567926510",
      "latitude": "47.7578699137"
    },
    "model": "safe_eats_app.restaurantinfo",
    "pk": "PR0052362"
  },
  {
    "fields": {
      "business_name": "BARNES & NOBLE BOOKSELLERS, INC.",
      "address": "2600 SW BARTON ST ",
      "city": "SEATTLE",
      "zip_code": "98126",
      "longitude": "-122.3678050000",
      "latitude": "47.5219110000"
    },
    "model": "safe_eats_app.restaurantinfo",
    "pk": "PR0071981"
  },
  {
    "fields": {
      "business_name": "BARNEY AND AL'S CHEVRON",
      "address": "1649 BELLEVUE WAY SE ",
      "city": "Bellevue",
      "zip_code": "98004",
      "longitude": "-122.1967885366",
      "latitude": "47.5951878789"
    },
    "model": "safe_eats_app.restaurantinfo",
    "pk": "PR0040028"
  },
  {
    "fields": {
      "business_name": "BAROLO RESTAURANT",
      "address": "1940 WESTLAKE AVE ",
      "city": "SEATTLE",
      "zip_code": "98101",
      "longitude": "-122.3375527973",
      "latitude": "47.6145164985"
    },
    "model": "safe_eats_app.restaurantinfo",
    "pk": "PR0069638"
  },
  {
    "fields": {
      "business_name": "BARRAGE CELLARS - TASTING ROOM/VARIANCE",
      "address": "19501 144TH AVE NE STE E800",
      "city": "WOODINVILLE",
      "zip_code": "98072",
      "longitude": "-122.1518780000",
      "latitude": "47.7695900000"
    },
    "model": "safe_eats_app.restaurantinfo",
    "pk": "PR0082838"
  },
  {
    "fields": {
      "business_name": "BARRIGA LLENA TRAILER",
      "address": "7811 AURORA AVE N",
      "city": "SEATTLE",
      "zip_code": "98103",
      "longitude": "-122.3113970966",
      "latitude": "47.3288014934"
    },
    "model": "safe_eats_app.restaurantinfo",
    "pk": "PR0071902"
  },
  {
    "fields": {
      "business_name": "Bartell Drug #07",
      "address": "5700 East Lake Sammammish PKWY SE",
      "city": "ISSAQUAH",
      "zip_code": "98029",
      "longitude": "-122.0430214689",
      "latitude": "47.5508829987"
    },
    "model": "safe_eats_app.restaurantinfo",
    "pk": "PR0079585"
  },
  {
    "fields": {
      "business_name": "Bartell Drug #20",
      "address": "3620 Factoria BL SE",
      "city": "BELLEVUE",
      "zip_code": "98006",
      "longitude": "-122.1674542600",
      "latitude": "47.5780770700"
    },